time_s,x_m,y_m,z_m,ref_x_m,ref_y_m,ref_z_m,vx_mps,vy_mps,vz_mps,ax_mps2,ay_mps2,az_mps2,roll_rad,pitch_rad,yaw_rad,ft_N,tx_Nm,ty_Nm,tz_Nm,tracking_error_m
0.1,-3648.537709991711,719.1992749717101,13.855525134851002,-3652.537,719.199,13.865,-0.028598369252692317,0.025513187157772094,-0.13330602848102105,-0.4918493931110244,1.163163880517618,0.005011782260597453,-0.05866921017993361,-0.05876399865931627,0.25963189821133215,-3652.537,719.199,3.141592653589793,13.865,3.9993012413518327
0.2,-3648.544851502063,719.2031727973189,13.841735846738395,-3652.537,719.199,13.865,-0.07778330856379476,0.1418295752095339,-0.1328048502549613,-0.04729879063869663,1.4999602724804444,0.1264193326254196,-0.13731608560224914,-0.05997770164151438,0.5389053163034265,-3652.537,719.199,3.141592653589793,13.865,3.9922184637922133
0.30000000000000004,-3648.563469677515,719.2154570351731,13.826757561927433,-3652.537,719.199,13.865,-0.03805812738043163,0.3255052416538611,-0.10802216195593714,1.0112787068263294,1.8767725179000148,0.22047970345680395,-0.19088107122807632,0.01079518870214269,0.809289072146367,-3652.537,719.199,3.141592653589793,13.865,3.9737484245712102
0.4,-3648.594773854787,719.2408064630143,13.809028154442707,-3652.537,719.199,13.865,0.12447243280147108,0.5171840787895369,-0.0887089095636005,2.1384579740940266,1.6797245014330706,0.2256630618960691,-0.21693106939640877,0.07777531019495668,1.0794193615484373,-3652.537,719.199,3.141592653589793,13.865,3.9428451158832005
0.5,-3648.6408076428456,719.2819665370912,13.786887504088865,-3652.537,719.199,13.865,0.3896334674383735,0.6614501419404751,-0.06288954957672332,2.9803187112161824,1.0129790332848096,0.299104949951547,-0.2235746270100336,0.12412849782132124,1.3548951723795954,-3652.537,719.199,3.141592653589793,13.865,3.8978583725221476
0.6000000000000001,-3648.704963624794,719.3388298401966,13.7599399219665,-3652.537,719.199,13.865,0.7205361750447078,0.7197798854464987,-0.028887919573291065,3.3397119533587287,0.167470267893155,0.4113397142292399,-0.21885011343784133,0.15291346115863325,1.6363586838599424,-3652.537,719.199,3.141592653589793,13.865,3.8360256496935885
0.7000000000000001,-3648.791044253012,719.4086602735031,13.729956511246634,-3652.537,719.199,13.865,1.0575758581101196,0.6949441955191062,0.01937839326912466,3.0794527145053543,-0.38894907674057455,0.44995480036769026,-0.212739132686714,0.1516510927095388,1.9035631595634699,-3652.537,719.199,3.141592653589793,13.865,3.7542480781817775
0.8,-3648.902259796463,719.4856038217647,13.70183550329181,-3652.537,719.199,13.865,1.3364267179457785,0.6419900700983838,0.06110304050024695,2.4309254313498734,-0.4659142744256841,0.2538624892077027,-0.21747244165923196,0.11723176550660919,2.1310689521293757,-3652.537,719.199,3.141592653589793,13.865,3.649671320933183
0.9,-3649.0390550887428,719.5607219474067,13.679313176730352,-3652.537,719.199,13.865,1.5437609443800941,0.6017613406339695,0.07015089111066519,1.770953409725725,-0.20818016548992535,0.21051711808417284,-0.23297894897309654,0.07723939523844366,2.3207399370632626,-3652.537,719.199,3.141592653589793,13.865,3.5214969779570593
1.0,-3649.198932070559,719.6249365009396,13.662527776844044,-3652.537,719.199,13.865,1.6906173998909233,0.6003540370003988,0.10320646411708151,1.2390311036197632,0.16678019291418833,0.27618177997765286,-0.2511999620830548,0.04316150119177544,2.4773117117463226,-3652.537,719.199,3.141592653589793,13.865,3.371218534231316
1.1,-3649.378047306842,719.6712196406561,13.651694763416387,-3652.537,719.199,13.865,1.7915671651040466,0.6351173792168071,0.12538724710619575,0.8165866811024145,0.3792836032579281,0.13462476128677892,-0.23215721164193304,0.014364892968636564,2.605083376211323,-3652.537,719.199,3.141592653589793,13.865,3.2011673855931684
1.2000000000000002,-3649.5705910422716,719.6969253347152,13.647436060084248,-3652.537,719.199,13.865,1.8539347361114062,0.6762107576519845,0.13013141637443731,0.4670526137739941,0.3754699169885689,-0.028964423193978073,-0.19673337542715866,-0.00968035218458804,2.7073617881221113,-3652.537,719.199,3.141592653589793,13.865,3.015766206354995
1.3,-3649.7704080936705,719.7031322453631,13.649208223209557,-3652.537,719.199,13.865,1.884977687858845,0.7102113626145208,0.11959436246740014,0.1942008061986833,0.28433639952968015,-0.06572999556026571,-0.15853033514682144,-0.02656396716939056,2.7890584583988804,-3652.537,719.199,3.141592653589793,13.865,2.8204159600867205
1.4000000000000001,-3649.9726752057045,719.6926979059816,13.655456576539809,-3652.537,719.199,13.865,1.8927748973511427,0.7330780375579206,0.1169854172623842,0.0014144359063461565,0.167854960663814,-0.06644506653275051,-0.12304581049223096,-0.036017360422406455,2.8542768380606818,-3652.537,719.199,3.141592653589793,13.865,2.6198106266147967
1.5,-3650.174224949009,719.6689468253954,13.664730209506436,-3652.537,719.199,13.865,1.885260575040114,0.7437823547472835,0.10630534916085005,-0.12172020213289692,0.048959411266274344,-0.04573822570143571,-0.09136177301934333,-0.039833412767723335,2.9068033161013087,-3652.537,719.199,3.141592653589793,13.865,2.417367152351617
1.6,-3650.3731896566132,719.6351484409248,13.675573793369455,-3652.537,719.199,13.865,1.8684308569245636,0.7428699198111756,0.10783777212209711,-0.1921607635044431,-0.05976906592562514,-0.13294828355761285,-0.06430937999355904,-0.03989290004974285,2.9494321314050898,-3652.537,719.199,3.141592653589793,13.865,2.2154419316304077
1.7000000000000002,-3650.5686022831446,719.5941339677747,13.687483576205038,-3652.537,719.199,13.865,1.846828422339225,0.7318285415621585,0.07971569244932745,-0.3759160511132009,-0.20527468544155658,-0.1656349558415532,-0.04035649573455307,-0.04102772250404227,2.9844279563689633,-3652.537,719.199,3.141592653589793,13.865,2.0154980786215266
1.8,-3650.7583818092958,719.548394841891,13.707044067797966,-3652.537,719.199,13.865,1.793247646701923,0.7018149827228641,0.07471078095378642,-0.851026210376407,-0.35545699508076734,-0.1293528375709453,-0.004905780227551137,-0.10631579371212882,3.014238530499134,-3652.537,719.199,3.141592653589793,13.865,1.8194805578409354
1.9000000000000001,-3650.936477051763,719.5004652321404,13.735496952821052,-3652.537,719.199,13.865,1.676623180263944,0.6607371425460051,0.05384512493513838,-1.4158585633950205,-0.40176317639610115,-0.22685509625563519,0.005707351764045404,-0.15868782775662943,3.0375783813478043,-3652.537,719.199,3.141592653589793,13.865,1.6338072203446186
2.0,-3651.09801154191,719.4514315234846,13.76688416270408,-3652.537,719.199,13.865,1.5100759340229188,0.6214623474436438,0.029339761702659395,-1.751191659441596,-0.3822349252677748,-0.28078719799198293,0.01212480185973738,-0.19244923666034733,3.056575008601751,-3652.537,719.199,3.141592653589793,13.865,1.4642527698769214
2.1,-3651.2408728836085,719.4020349438441,13.794682950243306,-3652.537,719.199,13.865,1.326384848375625,0.5842901574924503,-0.002312314663258208,-1.7867965779930577,-0.36915649912833537,-0.268171670757405,0.018341648947178255,-0.18820523122781935,3.072444684933155,-3652.537,719.199,3.141592653589793,13.865,1.313816264838081
2.2,-3651.365802843533,719.3531546409462,13.815770003764944,-3652.537,719.199,13.865,1.152716618424307,0.5476310476179767,-0.02429457244882166,-1.6507232475973552,-0.3676784426079598,-0.2087897637997363,0.023830713215159897,-0.17166817958456992,3.0856171325668367,-3652.537,719.199,3.141592653589793,13.865,1.1823239933159693
2.3000000000000003,-3651.474307393477,719.3056159557051,13.830471005975744,-3652.537,719.199,13.865,0.9962401988561538,0.5107544689708583,-0.04407026742320551,-1.4739874417262069,-0.37022127332978627,-0.030616758722708776,0.02814200307485264,-0.15251992123487415,3.096466645137249,-3652.537,719.199,3.141592653589793,13.865,1.0685854151155418
2.4000000000000004,-3651.568060720411,719.2601012433871,13.84007748625011,-3652.537,719.199,13.865,0.8579191300790654,0.4735867929520194,-0.03041792419336342,-1.2962084953119066,-0.37210576739064294,-0.06989649187524435,0.031211227115303324,-0.13374436322392905,3.1053555747645754,-3652.537,719.199,3.141592653589793,13.865,0.9711837216333011
2.5,-3651.648732772428,719.2171210033322,13.845918707168401,-3652.537,719.199,13.865,0.736998499793773,0.43633331549272986,-0.05804956579825419,-1.1279522104684006,-0.3715521903945569,-0.1487417719973229,0.03319289443744977,-0.11605610713396008,3.1126084813096933,-3652.537,719.199,3.141592653589793,13.865,0.8886569270961161
2.6,-3651.718028914871,719.1770162811815,13.848503152417475,-3652.537,719.199,13.865,0.6323286879853854,0.399276354873108,-0.060166278592827846,-0.9738203533268299,-0.3679263676807569,0.030484474477535828,0.034246016190381146,-0.09999550305174638,3.1184869893674168,-3652.537,719.199,3.141592653589793,13.865,0.8194321620185387
2.7,-3651.7774349406395,719.1400206316426,13.848991480295219,-3652.537,719.199,13.865,0.5422344291284068,0.36274804195657845,-0.05195267090274701,-0.8356945210434166,-0.3610757430801874,0.03946222915396874,0.03453845886608807,-0.08561438108428734,3.1232383047277046,-3652.537,719.199,3.141592653589793,13.865,0.7620196309780727
2.8000000000000003,-3651.828328875457,719.1062520108036,13.84810022266328,-3652.537,719.199,13.865,0.46518978377670195,0.3270612062570704,-0.05227383276203409,-0.7127623396692919,-0.35130712503705763,0.025689414224719653,0.034229941723181424,-0.07283604325000514,3.1270644869532713,-3652.537,719.199,3.141592653589793,13.865,0.7149143688127152
2.9000000000000004,-3651.871945724766,719.0757480892182,13.846512279549701,-3652.537,719.199,13.865,0.3996819611945483,0.29248661694916683,-0.04681478805780308,-0.6042768670887866,-0.33907129932663205,0.061981927810898896,0.03345182773603555,-0.061581174048073443,3.1301340705593557,-3652.537,719.199,3.141592653589793,13.865,0.6766313755105549
3.0,-3651.909414594953,719.0484657657997,13.844313965493999,-3652.537,719.199,13.865,0.3443344103589448,0.2592469463917441,-0.03987744719985434,-0.5092035359357172,-0.3248435911214762,-0.029742666883239482,0.03232819518383713,-0.051790265751709384,3.1325875123771043,-3652.537,719.199,3.141592653589793,13.865,0.6457181337995891
3.1,-3651.9417073806057,719.0243230870494,13.8417768669353,-3652.537,719.199,13.865,0.29784125400740497,0.22751789872487163,-0.05276332143445104,-0.42671488793727175,-0.309099427027526,-0.06293964680744382,0.030940306919915495,-0.04328713820403671,3.1345426343456624,-3652.537,719.199,3.141592653589793,13.865,0.6208257730896064
3.2,-3651.9696622599695,719.0032074412951,13.839249843203245,-3652.537,719.199,13.865,0.25899143277149034,0.19742706098623888,-0.05246537656134311,-0.3554673634057448,-0.2922167617774396,0.01034815705499148,0.029371404456208335,-0.03598184688008348,3.1360968836567467,-3652.537,719.199,3.141592653589793,13.865,0.6007244858352015
3.3000000000000003,-3651.9940136927194,718.98497296485,13.836757699515108,-3652.537,719.199,13.865,0.22674778132625595,0.16907454636938365,-0.05069369002345274,-0.2942892329343174,-0.27460574136738036,0.10227209943567991,0.02767218041810223,-0.029706404825023253,3.1373289197699097,-3652.537,719.199,3.141592653589793,13.865,0.5843281006470532
3.4000000000000004,-3652.0153827315303,718.9694667240512,13.834657646337195,-3652.537,719.199,13.865,0.20013358618462684,0.14250591271276275,-0.032010956674207114,-0.2418226062488641,-0.25645949911142385,0.06440558385627099,0.02590470310105185,-0.024386137600828188,3.138304549238188,-3652.537,719.199,3.141592653589793,13.865,0.5706932257869862
3.5,-3652.0343196339736,718.9565002055036,13.832283275941988,-3652.537,719.199,13.865,0.17838326007648322,0.11778264654709897,-0.037812573252198466,-0.19700401291535252,-0.23805626301851485,-0.012765455059546987,0.02406851291770082,-0.0198054260817727,3.1390729071420305,-3652.537,719.199,3.141592653589793,13.865,0.5590743105814111
3.6,-3652.0512736206665,718.945904429463,13.830022633440416,-3652.537,719.199,13.865,0.16073278360155635,0.09489466010905984,-0.03456404768611646,-0.15930922090222754,-0.21981728222591024,0.051533254349708124,0.022241896219695516,-0.01598289369345766,3.13967760796435,-3652.537,719.199,3.141592653589793,13.865,0.548826839337432
3.7,-3652.066629147884,718.9374975770276,13.827732207815862,-3652.537,719.199,13.865,0.14652141589603768,0.07381919010191688,-0.027505922382256836,-0.12781088519311412,-0.2019078743931571,0.009946940016273303,0.020441416234430392,-0.01279738993739895,3.140153169746034,-3652.537,719.199,3.141592653589793,13.865,0.5394637560343276
3.8000000000000003,-3652.0807005233105,718.9311093327369,13.825719605134784,-3652.537,719.199,13.865,0.1351706065629335,0.054513085230428374,-0.0325746596828618,-0.1016384533285064,-0.1844434976541329,0.053408720264425294,0.018674602584040533,-0.010148522450910087,3.14052710954335,-3652.537,719.199,3.141592653589793,13.865,0.5305822947049192
3.9000000000000004,-3652.0937510350554,718.9265683701623,13.824099789480725,-3652.537,719.199,13.865,0.1261937252303364,0.036930490571090276,-0.016824178329371765,-0.07998173181909396,-0.1675090997226092,0.07810759040097433,0.016956640680414935,-0.007960487527603118,3.1408210693296725,-3652.537,719.199,3.141592653589793,13.865,0.5218826161894873
4.0,-3652.106002735567,718.9237001826492,13.82260565362604,-3652.537,719.199,13.865,0.11917426019911474,0.021011265285906577,-0.01695314160266689,-0.0622586657102463,-0.15126435681740497,0.07013436699671942,0.01530644766178571,-0.006175647090613508,3.141052020593089,-3652.537,719.199,3.141592653589793,13.865,0.5131723998680907
4.1000000000000005,-3652.1176326767036,718.9223453379713,13.821422902802752,-3652.537,719.199,13.865,0.11374199208828714,0.006677619207609266,-0.0027973049300277406,-0.04790237151877019,-0.13575145433292235,0.013692926615113885,0.013730258569684087,-0.004733707404596886,3.1412336069290636,-3652.537,719.199,3.141592653589793,13.865,0.5042873360208429
4.2,-3652.1287863402613,718.922344436119,13.820224872353991,-3652.537,719.199,13.865,0.10959378589536067,-0.00613902558067793,-0.014214556279643882,-0.03643063590153328,-0.12106019171634642,-0.035809236021055055,0.0122395509710385,-0.0035853429764455586,3.141376600252924,-3652.537,719.199,3.141592653589793,13.865,0.4951580607029486
4.3,-3652.139577082291,718.9235561795534,13.819493087416014,-3652.537,719.199,13.865,0.10645586490798051,-0.017534419135659934,-0.009959152134238727,-0.027414082166680953,-0.10721501360781928,0.010230715164356988,0.010825787896820383,-0.002680113429571114,3.1414893144715204,-3652.537,719.199,3.141592653589793,13.865,0.48568009310171184
4.4,-3652.1500952776587,718.9258415331678,13.819220250095864,-3652.537,719.199,13.865,0.1041109694620245,-0.027582028302241792,-0.012168413246772541,-0.12147973523331668,-0.237253162911917,-0.021344056081027248,0.009501097245182876,-0.0019829756078333385,3.1415784150247066,-3652.537,719.199,3.141592653589793,13.865,0.47582202310655153
4.5,-3652.160230638639,718.9292874172961,13.81915046953242,-3652.537,719.199,13.865,0.08215991786131732,-0.06498505171804313,-0.014227963350444182,-0.5247570088910358,-0.46232412046611415,0.07040182094237109,0.03984505505308384,-0.04127591125714142,-2.9423664660580515,-3652.537,719.199,3.141592653589793,13.865,0.4656202405105955
4.6000000000000005,-3652.1676499294854,718.9368871539198,13.818608837415601,-3652.537,719.199,13.865,-0.0008404323161832984,-0.12004685239546486,0.001911950941701851,-0.9595171004628315,-0.40552518172989516,0.1443185583302744,0.045249064296698595,-0.06986727151985217,-2.66480032610717,-3652.537,719.199,3.141592653589793,13.865,0.4552743773102115
4.7,-3652.1712136252854,718.9513684040256,13.81759912896625,-3652.537,719.199,13.865,-0.1097435022312489,-0.1460900880640225,0.014635748315610752,-1.0858380885413135,-0.0987055585965192,-0.010525973899749002,0.041629533343320126,-0.07138497201496614,-2.3857536152830585,-3652.537,719.199,3.141592653589793,13.865,0.44426109645820394
4.800000000000001,-3652.172468858752,718.9735109576475,13.816083552404784,-3652.537,719.199,13.865,-0.21800805002444618,-0.13978796411476843,-0.00019324383824819574,-1.0160546244934667,0.1898680647027301,-0.08199864209918192,0.042623707111965704,-0.06424096055273491,-2.106419778360805,-3652.537,719.199,3.141592653589793,13.865,0.43141752399022404
4.9,-3652.1740021665237,719.0031282404981,13.814148206736576,-3652.537,719.199,13.865,-0.31295442712994254,-0.10811647512347666,-0.0017639801042257652,-0.8543180314593259,0.4043951460582481,0.0734432239753745,0.04777834161225295,-0.05595938416697523,-1.827213451219657,-3652.537,719.199,3.141592653589793,13.865,0.41559484856868456
5.0,-3652.178558791724,719.0392325263587,13.81240052792792,-3652.537,719.199,13.865,-0.38887165631631077,-0.058908934903119096,0.014495400956826651,-0.6520441909799861,0.5428973571603303,0.16078279581916743,0.055355914499642,-0.048859869250185324,-1.5479866454853317,-3652.537,719.199,3.141592653589793,13.865,0.3959450086644806
5.1000000000000005,-3652.1885531020944,719.0800271021208,13.811172580784238,-3652.537,719.199,13.865,-0.44336326532593967,0.00046299630858956625,0.03039257905960775,-0.43660005259055246,0.6104380405975067,0.05669970801339537,0.06408920987380093,-0.04348049763695457,-1.268681263334551,-3652.537,719.199,3.141592653589793,13.865,0.3721117871676742
5.2,-3652.205738229891,719.1230656685065,13.810744530916294,-3652.537,719.199,13.865,-0.4761916668344215,0.06317867321638233,0.025835342559505918,-0.2277949555532235,0.615428054017069,-0.10113813358341484,0.07302211375615111,-0.0396649899184441,-0.9896212213686817,-3652.537,719.199,3.141592653589793,13.865,0.344156997547053
5.300000000000001,-3652.2309704433223,719.1654744302535,13.810822293033503,-3652.537,719.199,13.865,-0.48892225643658427,0.12354860711200344,0.010164952342924666,-0.040696655685589,0.5693862604624202,-0.08981097353785533,0.08153891369598239,-0.03749605953549473,-0.710139130851287,-3652.537,719.199,3.141592653589793,13.865,0.3125912303938983
5.4,-3652.264188262985,719.2042643287531,13.811700026081853,-3652.537,719.199,13.865,-0.4843309979715395,0.17705592530886657,0.007873147851934718,0.11421445749083814,0.4808003708279748,-0.039979123929655885,0.08917579720378939,-0.03656060986868623,-0.43033047422900883,-3652.537,719.199,3.141592653589793,13.865,0.2780195033264903
5.5,-3652.3043144214826,719.2366434551502,13.813289155671262,-3652.537,719.199,13.865,-0.4660793649384167,0.21970868127759807,0.0021691275569935163,-0.18897662328342113,-0.1296965147589474,0.048800146870379466,0.0951744950318173,-0.035940933864978396,-0.15189838341634523,-3652.537,719.199,3.141592653589793,13.865,0.24131643041191206
5.6000000000000005,-3652.3504974015846,719.2609186418673,13.81331385828112,-3658.537,719.199,13.865,-0.5221263226282244,0.15111662235707607,0.017633177226010807,-0.8766058876123646,-0.5007783548186906,0.0946280102489603,0.0662690251085162,-0.10339165430392565,-0.11803132982979778,-3658.537,719.199,0.05875664978424181,13.865,6.187028347733269
5.7,-3652.4066445756075,719.2798255667647,13.808208612610102,-3658.537,719.199,13.865,-0.6414005424608892,0.1195530103138595,0.021094729606785698,-1.4365365244037616,-0.2296534639912594,0.05317451104836417,0.03907060927894706,-0.1577833863285026,-0.08807387441040473,-3658.537,719.199,0.05875664978424181,13.865,6.131151251053957
5.800000000000001,-3652.477488758051,719.2961336424693,13.797976354291023,-3658.537,719.199,13.865,-0.8094336275089774,0.10518592955882429,0.028268079435683685,-1.7950722704237823,-0.12027341633669653,0.12211525847185864,0.032048495407456794,-0.19811364754742425,-0.062179466684841825,-3658.537,719.199,0.05875664978424181,13.865,6.0606603274631965
5.9,-3652.566708654528,719.310470798404,13.783694900571305,-3658.537,719.199,13.865,-1.0004149965456457,0.09549832704652012,0.045517781301157356,-1.8682524159397893,-0.09748275664980488,0.1665339078576056,0.030684579535065083,-0.1979299771592753,-0.03964494322352127,-3658.537,719.199,0.05875664978424181,13.865,5.971885381343453
6.0,-3652.675144092509,719.3225359761265,13.768403898656391,-3658.537,719.199,13.865,-1.183084110696934,0.08568937822886338,0.06157486100720469,-1.7393298523738263,-0.10706344353970482,0.24061006685338063,0.031291123004040626,-0.18170694217856578,-0.020843767402851092,-3658.537,719.199,0.05875664978424181,13.865,5.863953156734486
6.1000000000000005,-3652.8014732135316,719.3318584138974,13.753869142831821,-3658.537,719.199,13.865,-1.3482809670204112,0.07408563833857912,0.09363979467183367,-1.5584563632810067,-0.12234038900202915,0.1611067378017439,0.03120969428159135,-0.16274815184156766,-0.0054714202320641425,-3658.537,719.199,0.05875664978424181,13.865,5.738141593220972
6.2,-3652.943729688443,719.3381510101264,13.740628628635795,-3658.537,719.199,13.865,-1.4947753833531359,0.06122130042845755,0.09379620856755377,-1.3769864489120618,-0.1290491582655083,-0.02991759744912842,0.029650067267672612,-0.14471701698293649,0.006999201834769593,-3658.537,719.199,0.05875664978424181,13.865,5.596383119460014
6.300000000000001,-3653.0999927250155,719.3413678976156,13.729143735938424,-3658.537,719.199,13.865,-1.6236782568028238,0.04827580668547743,0.08765627518200793,-1.2097454594381016,-0.1246172765836602,0.05905287791482222,0.02684792620102153,-0.12839668453600775,0.017074338834148346,-3658.537,719.199,0.05875664978424181,13.865,5.4405674015665895
6.4,-3653.2685893377266,719.341646165306,13.720401498391208,-3658.537,719.199,13.865,-1.7367244752407565,0.03629784511172547,0.105606784150518,-1.058038780550321,-0.1114047842492695,0.09174536782085979,0.02329617782376485,-0.11389545845897044,0.025208714880457558,-3658.537,719.199,0.05875664978424181,13.865,5.272324682860353
6.5,-3653.447796410642,719.3393086252804,13.713442859061725,-3658.537,719.199,13.865,-1.8352860129128872,0.02599484983562361,0.10600534874617983,-0.9210075024478499,-0.09266553221884617,0.06722127155602609,0.01941610915868202,-0.10089771747082277,0.03175444273638956,-3658.537,719.199,0.05875664978424181,13.865,5.093392705381359
6.6000000000000005,-3653.6362136815337,719.334713337834,13.708453448934417,-3658.537,719.199,13.865,-1.9209259757303265,0.01776473866795624,0.11905103846172335,-0.7986305202035417,-0.07136796801649184,0.07748967240013027,0.015572660968895221,-0.08946012304682113,0.037035962721832176,-3658.537,719.199,0.05875664978424181,13.865,4.905163755878187
6.7,-3653.832575375547,719.3282471904256,13.705197245306936,-3658.537,719.199,13.865,-1.9950121169535957,0.011721256232325212,0.12150328322620599,-0.6885934673686496,-0.04947459817448328,0.023507154302890854,0.011885541128833195,-0.0791760560749535,0.041289286967330294,-3658.537,719.199,0.05875664978424181,13.865,4.708912061591028
6.800000000000001,-3654.0357545074194,719.3202957187626,13.703537085982818,-3658.537,719.199,13.865,-2.0586446692040563,0.007869819033059597,0.12375246932230154,-0.5899449355541773,-0.028217816739914806,0.06925410858991332,0.008535384254013153,-0.07005565351962152,0.044708416385945075,-3658.537,719.199,0.05875664978424181,13.865,4.505773397372395
6.9,-3654.2447580266216,719.3112170406575,13.703218937310055,-3658.537,719.199,13.865,-2.1130011040644314,0.006077692884342228,0.1353541049441886,-0.5023037597539677,-0.00866531989982032,-0.00830994688518516,0.0055609046420064,-0.06194684556100821,0.04746755457791809,-3658.537,719.199,0.05875664978424181,13.865,4.29675539616678
7.0,-3654.458695721355,719.3013382787418,13.703871404951801,-3658.537,719.199,13.865,-2.1591054211548495,0.006136755053095539,0.12209047994526451,-0.424607703685,0.008600646389964647,-0.04644372140304842,0.0029957583519248238,-0.05477199515066727,0.04969732900813322,-3658.537,719.199,0.05875664978424181,13.865,4.082768832134636
7.1000000000000005,-3654.6768182272235,719.2909409813938,13.705651126133962,-3658.537,719.199,13.865,-2.1979226448014315,0.007797822162335173,0.12606536066357904,-0.35581955925619546,0.02342480046588154,-0.027119850370464826,0.0008132558209381684,-0.04839098299923849,0.051502220009087545,-3658.537,719.199,0.05875664978424181,13.865,3.8645631740904824
7.2,-3654.898450968861,719.280271243605,13.70855348680118,-3658.537,719.199,13.865,-2.2302693330060888,0.01082171514627184,0.11666650987117166,-0.29485530177953656,0.03587242318125133,-0.05473663191347389,-0.001010930944406091,-0.04270733445035817,0.05296527494692011,-3658.537,719.199,0.05875664978424181,13.865,3.6428175329720927
7.300000000000001,-3655.1230025565214,719.2695376738999,13.71267411109413,-3658.537,719.199,13.865,-2.2568937051573386,0.014972306798585454,0.11511803428088434,-0.2409078822983819,0.046028727503647025,-0.0246119199106144,-0.0025017657624551055,-0.03765894675533398,0.05415429213213505,-3658.537,719.199,0.05875664978424181,13.865,3.418121894249383
7.4,-3655.34993457945,719.2589154542972,13.717783815915913,-3658.537,719.199,13.865,-2.2784509094657652,0.020027460647001245,0.1117441258890488,-0.192983841705745,0.05408293804389412,-0.005324436404817501,-0.003690331054938165,-0.033182933564384016,0.05512193392460703,-3658.537,719.199,0.05875664978424181,13.865,3.191026239532555
7.5,-3655.578748944345,719.2485450299944,13.722877584891226,-3658.537,719.199,13.865,-2.2954904734984876,0.025788894407364243,0.11405314699992083,-0.1505457070408216,0.06019555824955765,-0.03366410543767695,-0.004613845127346393,-0.029215173435150545,0.055909852779176865,-3658.537,719.199,0.05875664978424181,13.865,2.962077446515504
7.6000000000000005,-3655.809037276778,719.2385403036396,13.727986687713342,-3658.537,719.199,13.865,-2.3085600508739295,0.03206657229691279,0.1050113048015133,-0.11337667235295257,0.06451127204676874,-0.07454251733123735,-0.005304684420256374,-0.025700480653780645,0.056552152928068165,-3658.537,719.199,0.05875664978424181,13.865,2.7316875192166687
7.7,-3656.040454341323,719.228991240753,13.733606054000228,-3658.537,719.199,13.865,-2.318165807969078,0.038691148816718,0.09914464353367333,-0.08085347773361029,0.06726693761710192,-0.010934998695110831,-0.005793325720812205,-0.022595315661553178,0.05707730137322537,-3658.537,719.199,0.05875664978424181,13.865,2.5001808073469456
7.800000000000001,-3656.272672485813,719.2199625896142,13.739286478769165,-3658.537,719.199,13.865,-2.3247307464206513,0.04551995982033318,0.10282430506249124,-0.05237930774721633,0.0686908370211265,-0.012427257754186405,-0.006109850790980096,-0.019860721931617833,0.05750727079551485,-3658.537,719.199,0.05875664978424181,13.865,2.267911464560932
7.9,-3656.505414263849,719.2115011863093,13.744935624288951,-3658.537,719.199,13.865,-2.3286416695185213,0.052429316220943316,0.09665919198283614,0.04889697004642457,0.056437088409289904,-0.005110729008958148,-0.006281417617883148,-0.01746085010556001,0.05786006664900822,-3658.537,719.199,0.05875664978424181,13.865,2.0351688719378513
8.0,-3656.737853031184,719.2036025975731,13.755886067025816,-3658.537,719.199,13.865,-2.3149513524113665,0.05680737750219113,0.10180215926069962,0.47161722727611277,0.006321548576048275,-0.08638889123129084,0.002424515822879781,0.04475817951220908,0.058052960876000516,-3658.537,719.199,0.05875664978424181,13.865,1.8024585569917742
8.1,-3656.964283719313,719.1959080587226,13.781325725992074,-3658.537,719.199,13.865,-2.234318224063299,0.05369362593615296,0.07938141373657803,1.095629157555571,-0.03946422631162186,-0.2698396590534554,0.005099593484916972,0.10772945593863083,0.05856368569435489,-3658.537,719.199,0.05875664978424181,13.865,1.5749436319340526
8.200000000000001,-3657.1781972611625,719.1884235678418,13.815446453602272,-3658.537,719.199,13.865,-2.09582552090025,0.048914532239866686,0.04783422745000809,1.6195719012493885,-0.04773038170278107,-0.4358533240127542,0.005242952119818833,0.15990643215862335,0.05899033821319902,-3658.537,719.199,0.05875664978424181,13.865,1.3597471448580312
8.3,-3657.3748900532087,719.1814188339059,13.852763360697425,-3658.537,719.199,13.865,-1.9104038438134208,0.044147549595596705,-0.007789251065972835,1.9751955418613676,-0.04575680069530064,-0.38346208609001253,0.00483505351594234,0.20104194291959596,0.05927891110152986,-3658.537,719.199,0.05875664978424181,13.865,1.162307343680465
8.4,-3657.5516370957694,719.1751217921142,13.887421487598797,-3658.537,719.199,13.865,-1.700786412527978,0.03976317210080659,-0.028858189767994147,2.0672935284256493,-0.04155418764905247,-0.21231300658923127,0.004386290898550115,0.20685016147247232,0.059345995990416206,-3658.537,719.199,0.05875664978424181,13.865,0.9859071685262416
8.5,-3657.708693361027,719.1695855190899,13.914525663616148,-3658.537,719.199,13.865,-1.4969451381282923,0.035836712065786244,-0.050251852383818935,1.9614307240225823,-0.036721313878382206,-0.27408100302937166,0.0038724102290667683,0.1956985854036063,0.05933388378941442,-3658.537,719.199,0.05875664978424181,13.865,0.8303071065636004
8.6,-3657.847320871333,719.164786215494,13.933284415080607,-3658.537,719.199,13.865,-1.308500267723463,0.032418909325130175,-0.08367439037386828,1.798081255981102,-0.03173296005117518,-0.18524776760138395,0.0033454951594696987,0.18000214436141349,0.05931448177777594,-3658.537,719.199,0.05875664978424181,13.865,0.6938952694114813
8.700000000000001,-3657.9688017668213,719.1606911878374,13.945343231640296,-3658.537,719.199,13.865,-1.1373288869320703,0.029490120055551187,-0.0873014059040954,1.625445783194131,-0.027055655691489322,-0.10765399768736778,0.002849639095959929,0.16329501932121293,0.05930327942912446,-3658.537,719.199,0.05875664978424181,13.865,0.5751276659549938
8.8,-3658.0746488101827,719.1572544860794,13.951660993847241,-3658.537,719.199,13.865,-0.9834111110846345,0.027007778186832275,-0.1052051899113417,1.4580163320636368,-0.022886561623598978,-0.04499877250810003,0.002408189615755331,0.14700855674482438,0.05930238382554102,-3658.537,719.199,0.05875664978424181,13.865,0.4722514568663556
8.9,-3658.166256677588,719.1544317104019,13.953880590337329,-3658.537,719.199,13.865,-0.8457256205193441,0.024912807730831404,-0.09630116040571537,1.3007173808416144,-0.019274061283398813,0.005295894306701743,0.0020231563350167946,0.13147893977001454,0.059309319037666154,-3658.537,719.199,0.05875664978424181,13.865,0.38384463378988604
9.0,-3658.245031279531,719.1521743916558,13.953106779652162,-3658.537,719.199,13.865,-0.7232676349163126,0.023152965930152525,-0.10414601105000135,1.1547309394166714,-0.016180153620051513,0.04641769405584972,0.0016929755154968412,0.11693937739849744,0.05932170143432887,-3658.537,719.199,0.05875664978424181,13.865,0.3085468780424764
9.1,-3658.3123395609723,719.1504324901729,13.950171750022962,-3658.537,719.199,13.865,-0.6147794326360105,0.021676777006821114,-0.08701762159454546,0.9855790047994399,0.3826655910933906,5.231852369317471,0.00141419066366893,0.10351711647216026,0.05933736547789238,-3658.537,719.199,0.05875664978424181,13.865,0.24512311779350307
9.200000000000001,-3658.359571919639,719.150703425496,14.029009152828248,-2595.372,781.739,20.317999999999998,-0.526151833956424,0.09968608414883247,0.9422244628135164,1.1111922724973589,0.24011067318535456,5.399644899300688,0.02716573945157344,0.1539724762373224,0.15562228268682265,-2595.372,781.739,0.6287962287938126,20.317999999999998,1064.8471366020497
9.3,-3658.3884344980156,719.1520464206636,14.134143800346509,-2595.372,781.739,20.317999999999998,-0.3925409781365383,0.0696989116438942,0.9929113582656153,1.5428763764408604,-0.28420713850367685,0.3154167739424958,0.002000413272966224,0.19577070742083133,0.24249279292915954,-2595.372,781.739,0.6287962287938126,20.317999999999998,1064.875254125437
9.4,-3658.3988978391476,719.1574371841348,14.237375605447811,-2595.372,781.739,20.317999999999998,-0.21757655866825298,0.0428446564480973,1.0053078176020152,1.9558758765304385,0.17246643015048813,0.09888356358663852,-0.05409730669214756,0.23406067362304567,0.31246772978168547,-2595.372,781.739,0.6287962287938126,20.317999999999998,1064.8847879123007
9.5,-3658.389660648659,719.1737392349633,14.336073836848376,-2595.372,781.739,20.317999999999998,-0.001365802830452012,0.10419219767399171,1.012688070982943,2.3345267278036084,0.24158528506902074,-0.020988163702387652,-0.035404625916046685,0.26671000076980056,0.3696683439132775,-2595.372,781.739,0.6287962287938126,20.317999999999998,1064.8740498979994
9.600000000000001,-3658.358893583248,719.202785585652,14.427651528958467,-2595.372,781.739,20.317999999999998,0.2493287868924718,0.09116171346190038,1.0011101848615371,2.6384979296531026,0.12484213182661996,-0.016959752819280638,-0.07041720936657249,0.29267352533335356,0.41720645978616766,-2595.372,781.739,0.6287962287938126,20.317999999999998,1064.8411197207552
9.700000000000001,-3658.306308699946,719.2482324509799,14.50993525616403,-2595.372,781.739,20.317999999999998,0.5263337831001709,0.12916062403931494,1.0092961204190862,2.887094550962466,0.43976720780627115,0.03467446651063,-0.08674531886412201,0.3151042738178304,0.4555492721818205,-2595.372,781.739,0.6287962287938126,20.317999999999998,1064.7855062200867
9.8,-3658.231539201676,719.3127751544451,14.581578278341489,-2595.372,781.739,20.317999999999998,0.8267476970849629,0.1791151550231543,1.0080450781636632,3.2308634253113215,0.3163507480794091,-0.10203275426744352,-0.0650550727998804,0.33232782134006433,0.48765584293800246,-2595.372,781.739,0.6287962287938126,20.317999999999998,1064.7066920775108
9.9,-3658.13376706396,719.396648115128,14.641306728867105,-2595.372,781.739,20.317999999999998,1.1725064681624329,0.19243077365519654,0.9888895695655975,3.4389231530875977,0.42699115720076075,-0.12669938539329983,-0.09703016531610949,0.312338286161422,0.5172552820772242,-2595.372,781.739,0.6287962287938126,20.317999999999998,1064.6038545947235
10.0,-3658.013780589251,719.5027020815843,14.700838918967262,-2595.372,781.739,20.317999999999998,1.51453232770248,0.26451338646330613,0.9827052010850033,2.810872231740645,0.274978692230777,0.010504140241486049,-0.045652610116033165,0.22710850185105105,0.5432684488478189,-2595.372,781.739,0.6287962287938126,20.317999999999998,1064.4775540757514
10.100000000000001,-3657.877036688076,719.6249762557221,14.756924813633596,-2595.372,781.739,20.317999999999998,1.7346809145105628,0.24742651210135064,0.990990397613895,2.4191891006455517,0.4802505377213324,-0.017580670794385078,-0.10297323693443504,0.23791015012232392,0.5591737621329442,-2595.372,781.739,0.6287962287938126,20.317999999999998,1064.3336086446125
10.200000000000001,-3657.7261317001908,719.7665343708085,14.815870895220236,-2595.372,781.739,20.317999999999998,1.998370147831592,0.3605634940075708,0.9791890669261264,2.0153653778634997,0.4432287899420386,0.015480369775521474,-0.03294698812656138,0.1603464697842451,0.5777728116687733,-2595.372,781.739,0.6287962287938126,20.317999999999998,1064.174403498465
10.3,-3657.5643472547486,719.9215286244871,14.874883633083162,-2595.372,781.739,20.317999999999998,2.1377539900832616,0.33607227008975804,0.9940864715689992,1.7483463024573886,0.44662115901796473,0.15876437736431814,-0.09107804772286883,0.18709347388723047,0.5863145108451969,-2595.372,781.739,0.6287962287938126,20.317999999999998,1064.0035760511328
10.4,-3657.3932310190785,720.0921034478102,14.937761090113764,-2595.372,781.739,20.317999999999998,2.3480394083230687,0.44988772581116343,1.01094194239899,1.4365003873678415,0.4504008294461741,0.05360052302427576,-0.02613886061661427,0.1124526766929026,0.5992128441659933,-2595.372,781.739,0.6287962287938126,20.317999999999998,1063.8225331137346
10.5,-3657.2150794002537,720.2730383273298,15.003053785830186,-2595.372,781.739,20.317999999999998,2.425054067556829,0.42615243597899255,1.0048065761738543,1.2550321006083696,0.37746468148582846,-0.11958025959799823,-0.07306949430898903,0.15210489907565633,0.6034914350662924,-2595.372,781.739,0.6287962287938126,20.317999999999998,1063.6338836121288
10.600000000000001,-3657.030648351942,720.4657765088616,15.068957047127506,-2595.372,781.739,20.317999999999998,2.5990458284447455,0.5253806621083318,0.98702589047939,1.0574176181280883,0.4039809770954723,0.014613368453679776,-0.02290478306999683,0.08151122618924593,0.61241741714286,-2595.372,781.739,0.6287962287938126,20.317999999999998,1063.4383132036335
10.700000000000001,-3656.8415274125255,720.6666503476241,15.139579053492032,-2595.372,781.739,20.317999999999998,2.63653759118245,0.5069486313980895,1.0077292498645896,0.9184334458753742,0.32737819738727447,0.10175626399134341,-0.05646178387399548,0.12641152564600447,0.6145590102310085,-2595.372,781.739,0.6287962287938126,20.317999999999998,1063.237605411383
10.8,-3656.647874613734,720.87642276402,15.209205484174582,-2595.372,781.739,20.317999999999998,2.7827325176198197,0.5908563015857865,1.0073771432776586,0.7731561149871862,0.3487618540775852,-0.0202165253086255,-0.017254620074643193,0.05989135004455323,0.6205834896992978,-2595.372,781.739,0.6287962287938126,20.317999999999998,1063.0319069183
10.9,-3656.4510037787204,721.0922517535927,15.287335903532659,-2595.372,781.739,20.317999999999998,2.7911688141798865,0.5767010022136063,1.0036859448028645,0.6538241430402039,0.2011542054061639,-0.17773008942077517,-0.034168059298754626,0.10396437772719695,0.6219041592286364,-2595.372,781.739,0.6287962287938126,20.317999999999998,1062.8226512048736
11.0,-3656.2507394404042,721.314027236296,15.35921671156738,-2595.372,781.739,20.317999999999998,2.91349734622786,0.6310871426670192,0.9718311253935038,0.589351002991302,0.2764243439725127,0.04488517940390757,-0.019346545372551514,0.0484531692207534,0.6257654563123256,-2595.372,781.739,0.6287962287938126,20.317999999999998,1062.6097433497669
11.100000000000001,-3656.0483075703355,721.5408963741692,15.443614437758104,-2595.372,781.739,20.317999999999998,2.9090390147781453,0.6319858710081082,1.0126629806836476,0.43855698040610314,0.16123576232926062,0.22123189259628617,-0.01783720511599594,0.08187836509289206,0.62662562021946,-2595.372,781.739,0.6287962287938126,20.317999999999998,1062.3943715757332
11.200000000000001,-3655.8435387252816,721.7714643740981,15.517084370641754,-2595.372,781.739,20.317999999999998,3.0012087423090796,0.6633342951328709,1.016077503912762,0.4508309398542121,0.2531346626962603,0.025092736237560587,-0.02019190464571007,0.04657984418403077,0.6287544343229815,-2595.372,781.739,0.6287962287938126,20.317999999999998,1062.1765571534193
11.3,-3655.6370467951047,722.0063307284687,15.606394754072221,-2595.372,781.739,20.317999999999998,2.9992052027489873,0.6826128035473601,1.0176815279311597,0.2906311803977424,0.0463440979412133,-0.08145604102436366,0.0048011450386338155,0.06107852422937216,0.6295757072688135,-2595.372,781.739,0.6287962287938126,20.317999999999998,1061.9567601638596
11.4,-3655.428820878592,722.242789984239,15.68302068455788,-2595.372,781.739,20.317999999999998,3.059334978388628,0.6726031147211136,0.9997862957078893,0.3349932253138661,0.1736929529432394,-0.01172384658502068,-0.027542872832351836,0.04730201759327448,0.6307423543791234,-2595.372,781.739,0.6287962287938126,20.317999999999998,1061.7352520900497
11.5,-3655.219344213944,722.4829373531338,15.774969075122169,-2595.372,781.739,20.317999999999998,3.06620384781176,0.7173513941360079,1.0153367586141555,0.17595448897566257,-0.005571619283674334,-0.09213793840149265,0.02049214084694193,0.04281846456799945,0.6314279451669019,-2595.372,781.739,0.6287962287938126,20.317999999999998,1061.512276484707
11.600000000000001,-3655.008678382744,722.7231922794494,15.85484868937785,-2595.372,781.739,20.317999999999998,3.094525876183761,0.6714887908643771,0.9813587080275898,0.24133087949842746,0.08772552604400552,0.010164162431760104,-0.033535966301369007,0.050011590534928665,0.6320528558345555,-2595.372,781.739,0.6287962287938126,20.317999999999998,1061.2882150738064
11.700000000000001,-3654.7970376865696,722.9663959843929,15.947287940519617,-2595.372,781.739,20.317999999999998,3.114470023711446,0.7348964993448072,1.0173695911005063,0.07883119988489895,-0.001275023547699039,0.06137447007792751,0.029467962113344986,0.026264458649681792,0.6325470333628532,-2595.372,781.739,0.6287962287938126,20.317999999999998,1061.0630200812166
11.8,-3654.5846731951297,723.2086468673941,16.030766912754405,-2595.372,781.739,20.317999999999998,3.110292116160741,0.6712337861548373,0.9936336020431753,0.1889215613483426,0.010625010014935654,-1.0813652984609234e-05,-0.029944038052808677,0.05515289963650094,0.6328776275039498,-2595.372,781.739,0.6287962287938126,20.317999999999998,1060.837249375485
11.9,-3654.371412253154,723.4532160565923,16.124288706880332,-2595.372,781.739,20.317999999999998,3.152254335981114,0.7370215013477943,1.0173674283699095,0.002896017194720102,0.0014534792484983683,0.009210263670079932,0.03000050766120532,0.00778369965980945,0.6331148235480597,-2595.372,781.739,0.6287962287938126,20.317999999999998,1060.6104727829318
12.0,-3654.15811535151,723.6961953470567,16.212760940119573,-2595.372,781.739,20.317999999999998,3.110871319599685,0.671524482004537,0.9954756547771912,0.09747732843364965,-0.024180546490051746,-0.13854296745483907,-0.022910342904673472,0.059431652643415184,0.633402130774866,-2595.372,781.739,0.6287962287938126,20.317999999999998,1060.3838258955384
12.100000000000001,-3653.944066086539,723.9408646276161,16.304364695964875,-2595.372,781.739,20.317999999999998,3.171749801667846,0.7321853920497862,0.9896588348789418,-0.006776024411017545,0.016572758457919612,0.05421840688293056,0.02671271055357834,-0.0026642169526910017,0.6334556191134301,-2595.372,781.739,0.6287962287938126,20.317999999999998,1060.1563813040048
12.200000000000001,-3653.7303582748773,724.1837653502182,16.397591882120665,-2595.372,781.739,20.317999999999998,3.1095161147174837,0.674839033696123,1.006319336153777,0.0184509003408575,-0.08631497783271724,0.18760820190706706,-0.009011890909826598,0.05663215189966513,0.6340561434913017,-2595.372,781.739,0.6287962287938126,20.317999999999998,1059.929426502395
12.3,-3653.515907608972,724.4274812654468,16.487034529818473,-2595.372,781.739,20.317999999999998,3.1754399817360173,0.7149223964832427,1.027180475260355,-0.014293757085805936,0.019918269371896447,0.016371760303850458,0.01733366995238465,-0.005224228338957958,0.6339685506983626,-2595.372,781.739,0.6287962287938126,20.317999999999998,1059.7017578951543
12.4,-3653.302208538399,724.669650155581,16.585060112484623,-2595.372,781.739,20.317999999999998,3.1066573633003225,0.6788226875705022,1.009593688214547,-0.06556435219397727,-0.09590620079163115,-0.3086186268014517,0.004474305352306368,0.047030780597959,0.6344439639177087,-2595.372,781.739,0.6287962287938126,20.317999999999998,1059.4749509403086
12.5,-3653.0879934300438,724.9117437668605,16.672197825471848,-2595.372,781.739,20.317999999999998,3.162327111297222,0.6957411563249166,0.965456749900065,-0.006506552131936516,0.021502751125229036,0.024495661084323217,0.0077743952513600004,0.0018328280439965723,0.6342905049102362,-2595.372,781.739,0.6287962287938126,20.317999999999998,1059.2477291371397
12.600000000000001,-3652.8743769278767,725.1528216244354,16.77217447433244,-2595.372,781.739,20.317999999999998,3.1053560528739332,0.6831232377955475,1.0144928204314134,-0.09467409903902357,-0.15033099086474389,0.12257319239162712,0.021038604971318313,0.035579166309139,0.63471304587009,-2595.372,781.739,0.6287962287938126,20.317999999999998,1059.0211733813064
12.700000000000001,-3652.6602698027614,725.392698906552,16.85924091329802,-2595.372,781.739,20.317999999999998,3.1433922914894157,0.6656749581519678,0.9899713883783918,-0.013430244405302716,0.000610485105676517,0.018017869721305146,-0.005085132889077926,0.010220986104804161,0.6346309074965115,-2595.372,781.739,0.6287962287938126,20.317999999999998,1058.7942926384947
12.8,-3652.4468130109535,725.6321744601955,16.961123091014915,-2595.372,781.739,20.317999999999998,3.1026700039928725,0.6832453348166828,1.0180963943756745,-0.13171628139574487,-0.1668021147668668,-0.06673170029228981,0.032665271792229375,0.022900427862389168,0.6347885056294594,-2595.372,781.739,0.6287962287938126,20.317999999999998,1058.5680917148782
12.9,-3652.233170973318,725.8696031492208,17.049156190012987,-2595.372,781.739,20.317999999999998,3.117049035210267,0.6323145351985945,0.9766250483199338,-0.009429114433100239,-0.02888523708866364,-0.04292647297066754,-0.01820791878158587,0.020304793630588527,0.63484872371276,-2595.372,781.739,0.6287962287938126,20.317999999999998,1058.3419152407303
13.0,-3652.020029445579,726.1071488785964,17.151319291535113,-2595.372,781.739,20.317999999999998,3.1007841811062526,0.6774682873989502,1.009511099781541,-0.180450983993504,-0.12920471789772137,0.06328018104770017,0.03861058742755875,0.008192232119601755,0.6347319280998548,-2595.372,781.739,0.6287962287938126,20.317999999999998,1058.116245436733
13.100000000000001,-3651.8071178542828,726.3419648714864,17.241185094848724,-2595.372,781.739,20.317999999999998,3.080958838411566,0.606473591619048,0.9892810845294728,-0.025337039116438476,-0.07159244614252902,-0.018788609551928737,-0.02179484591736191,0.035009279043115814,0.6348958107880724,-2595.372,781.739,0.6287962287938126,20.317999999999998,1057.8910418974076
13.200000000000001,-3651.5943721497483,726.5772547236985,17.339573066003375,-2595.372,781.739,20.317999999999998,3.0957167732829642,0.6631497981704421,1.0057533778711547,-0.14236071101554337,-0.06776890020347892,0.00787342702251781,0.03637189896547235,-0.0021291889697581984,0.6345955571691078,-2595.372,781.739,0.6287962287938126,20.317999999999998,1057.6660099476442
13.3,-3651.382098095021,726.8097543596848,17.431411297353772,-2595.372,781.739,20.317999999999998,3.052486696208457,0.5929198115783523,0.9908557699339764,-0.027229282708793434,-0.09312604038264594,-0.08965984262118276,-0.014828724984602267,0.04279780667572966,0.6349889412457156,-2595.372,781.739,0.6287962287938126,20.317999999999998,1057.4416682255378
13.4,-3651.169713877674,727.0426235976764,17.528174628329456,-2595.372,781.739,20.317999999999998,3.0902709167412055,0.6445245900939129,0.9878214093469182,-0.15597542754493254,-0.03301290320636996,0.05314841766114231,0.030244906260873207,-0.01205961668510818,0.6345797140398617,-2595.372,781.739,0.6287962287938126,20.317999999999998,1057.2172384834028
13.5,-3650.9583130009255,727.2727145213616,17.62397904297161,-2595.372,781.739,20.317999999999998,3.0212916106994707,0.5863172309370783,1.0014854534662048,-0.06448628881285678,-0.12997387091327894,0.006148108344874892,-0.0015977566686554575,0.04766239706376629,0.6353210921326514,-2595.372,781.739,0.6287962287938126,20.317999999999998,1056.9939915617524
13.600000000000001,-3650.7464307336627,727.5028182019638,17.71795700935764,-2595.372,781.739,20.317999999999998,3.0773736589786362,0.6185298159112586,0.9890510310158929,-0.09374401628108764,-0.007046396676477773,0.038327278611678395,0.01854413089307188,-0.013124269373547418,0.6348814164709949,-2595.372,781.739,0.6287962287938126,20.317999999999998,1056.770321633791
13.700000000000001,-3650.535676182703,727.7308716918275,17.81668090206468,-2595.372,781.739,20.317999999999998,3.0025428074432554,0.5849079516017839,1.00915090918854,-0.0929980340252552,-0.1578838568626426,-0.09040305739160903,0.013623542814179835,0.044724918087275634,0.6357215603271575,-2595.372,781.739,0.6287962287938126,20.317999999999998,1056.5479251108195
13.8,-3650.3241943469984,727.9582543469913,17.907691820968303,-2595.372,781.739,20.317999999999998,3.0587740521735856,0.5869530445387301,0.9709704195375711,-0.06052426285709345,0.0018969900568350795,0.031301304163259935,0.004485257707548055,-0.009269357421000156,0.635368825718188,-2595.372,781.739,0.6287962287938126,20.317999999999998,1056.3249076614918
13.9,-3650.1141683875144,728.184189701556,18.009956819960703,-2595.372,781.739,20.317999999999998,2.9904379548718367,0.5852873496131509,1.015411170021192,-0.169962134205921,-0.1744031566771005,0.11267298686067395,0.027319635540154086,0.03069931678834384,0.6358399181217874,-2595.372,781.739,0.6287962287938126,20.317999999999998,1056.1034450015866
14.0,-3649.9036897625347,728.4085939535465,18.098879318144675,-2595.372,781.739,20.317999999999998,3.0247816253324014,0.5520724132033101,0.9935050169097058,-0.036162100022474775,0.004844346837180602,-0.03241016643510086,-0.012047339070980505,0.006962973534299866,0.6356431376333356,-2595.372,781.739,0.6287962287938126,20.317999999999998,1055.881689120096
14.100000000000001,-3649.69420985251,728.6326591154185,18.201677679612526,-2595.372,781.739,20.317999999999998,2.9832055348673405,0.5862562189805882,1.0089291367341724,-0.15970756985914925,-0.15783978557188316,-0.10305264503561506,0.037983414380045794,0.01874648668969132,0.6357300150892834,-2595.372,781.739,0.6287962287938126,20.317999999999998,1055.6609704117104
14.200000000000001,-3649.484505151565,728.8544711213988,18.290955927215702,-2595.372,781.739,20.317999999999998,2.9928401113605703,0.5205044560889351,0.9728944879025837,0.008476189648170873,-0.05051851265609386,-0.03306919100866246,-0.022629731115558292,0.02078914521396602,0.6357318686752038,-2595.372,781.739,0.6287962287938126,20.317999999999998,1055.4402189699294
14.3,-3649.275353806765,729.0766146843015,18.392702733078504,-2595.372,781.739,20.317999999999998,2.9849007727969745,0.5761525164493695,1.00231529853244,-0.2149613254536895,-0.08043117712360859,0.08806112904763985,0.03760539204377976,0.0007544737957564114,0.6354263144558291,-2595.372,781.739,0.6287962287938126,20.317999999999998,1055.2200304968878
14.4,-3649.0666770437715,729.2960500838171,18.48427146152367,-2595.372,781.739,20.317999999999998,2.9498478462698325,0.5044182206642135,0.9905067137121115,-0.010729185557828202,-0.06673663806720631,-0.025395855097602116,-0.022082800766003642,0.04064545633606274,0.6354675314334368,-2595.372,781.739,0.6287962287938126,20.317999999999998,1055.000520372688
14.5,-3648.8580433095394,729.5162872863657,18.582538859894765,-2595.372,781.739,20.317999999999998,2.982754935685409,0.5628051888359282,0.9972361275129195,-0.12733131153404997,-0.017119560252705668,0.06465677031437522,0.030369747038382813,-0.009069773159659749,0.6350438749861914,-2595.372,781.739,0.6287962287938126,20.317999999999998,1054.781051686334
14.600000000000001,-3648.650174418866,729.7341244265692,18.676468498728024,-2595.372,781.739,20.317999999999998,2.924381583963021,0.5009943086136702,1.0034380677749866,-0.025372251989558947,-0.054156657221406945,0.17189664806903426,-0.013548045376984416,0.04734904675981137,0.6353117697030132,-2595.372,781.739,0.6287962287938126,20.317999999999998,1054.562522762978
14.700000000000001,-3648.44200796281,729.9526619354785,18.771858394762365,-2595.372,781.739,20.317999999999998,2.9776804852874954,0.5519738573916447,1.0316154571267262,-0.10394281380878923,-0.010007564029914207,0.04755488613921166,0.025845313223955668,-0.013782922171520195,0.634889194794548,-2595.372,781.739,0.6287962287938126,20.317999999999998,1054.343709155031
14.8,-3648.2348628360155,730.1688773269449,18.870406762124766,-2595.372,781.739,20.317999999999998,2.903593021201263,0.49899279580768735,1.012949045002829,-0.07818712827238627,-0.1058155544401016,-0.06383481305737604,-0.0033655664984496765,0.04603871882229451,0.6353658350175511,-2595.372,781.739,0.6287962287938126,20.317999999999998,1054.1260745366026
14.9,-3648.0273075203672,730.3853424043068,18.96132532433159,-2595.372,781.739,20.317999999999998,2.962043059633018,0.5308107465036245,1.0188484945152512,-0.04346466291129403,0.021390555093173447,-0.021281201277653317,0.013121132359699673,-0.007908273050068184,0.6350281871421574,-2595.372,781.739,0.6287962287938126,20.317999999999998,1053.9080771895765
15.0,-3647.8206708345274,730.6003782303409,19.061311860954905,-2595.372,781.739,20.317999999999998,2.8949000886190044,0.503270906826322,1.0086928047472983,-0.08783550277260588,-0.11121335863849957,-0.14301035944001672,0.010010304436393816,0.039127840615784434,0.6354078853996932,-2595.372,781.739,0.6287962287938126,20.317999999999998,1053.6911039972497
15.100000000000001,-3647.613533413165,730.8149612075848,19.15043223702309,-2595.372,781.739,20.317999999999998,2.944475959078499,0.508568074775925,0.9902464226272474,-0.01346059411322642,0.03227936966958733,-0.001737866734347726,0.0008418266240627869,0.0002967736841086085,0.6351932572575357,-2595.372,781.739,0.6287962287938126,20.317999999999998,1053.4737137589632
15.200000000000001,-3647.4073172723197,731.0288743509961,19.252058072940425,-2595.372,781.739,20.317999999999998,2.8922079697963605,0.5097267807602396,1.008345231400428,-0.12681727836846335,-0.15157426172743493,0.062130053468709256,0.023558426745131283,0.02613352006481151,0.635307910900432,-2595.372,781.739,0.6287962287938126,20.317999999999998,1053.2573103775735
15.3,-3647.200815449631,731.2414501434056,19.340513059153274,-2595.372,781.739,20.317999999999998,2.9191125034048064,0.4782532224304382,1.002672433320989,-0.009963416277713577,0.011394338738111465,-0.533985122347933,-0.017219972455398552,0.013806849841698929,0.6352705842230768,-2595.372,781.739,0.6287962287938126,20.317999999999998,1053.04074709026
15.4,-3646.9950184180702,731.4545336903308,19.43438535369107,-2595.372,781.739,20.317999999999998,2.8902152865408177,0.5120056485078619,0.9015482069308417,-0.06924239813326771,-0.018329166060387703,-1.0415510299477448,0.029011739627893697,0.021876266806751362,0.6352368767771701,-2595.372,781.739,0.6287962287938126,20.317999999999998,1052.8249052874958
15.5,-3646.7891618611593,731.6659989718239,19.509673854612295,-2595.372,781.739,20.317999999999998,2.9052640237781526,0.4745873892183607,0.7943622273314409,-0.031595657963290336,-0.10712502281850167,-0.7992351000808067,-0.012068660956954655,0.014292351272372456,0.6348775342728994,-2595.372,781.739,0.6287962287938126,20.317999999999998,1052.609142597242
15.600000000000001,-3646.583689267937,731.877443421162,19.58419308906281,-2595.372,781.739,20.317999999999998,2.8838961549481588,0.4905806439441624,0.7417011869146805,-0.07363379347701482,0.023062221218821843,-0.6589269220256275,0.01419865506887066,0.024432408705788864,0.6343171935177098,-2595.372,781.739,0.6287962287938126,20.317999999999998,1052.3938088712787
15.700000000000001,-3646.3782374204807,732.0878177899988,19.64744099421406,-2595.372,781.739,20.317999999999998,2.890537265082749,0.4791998334621255,0.6625768429263152,-0.011653041673937992,-0.056023892559425637,-0.6839762058437522,0.00014876133145985617,0.015713344705472324,0.6334999141422043,-2595.372,781.739,0.6287962287938126,20.317999999999998,1052.178597311781
15.8,-3646.173039039882,732.297762629278,19.7063742531956,-2595.372,781.739,20.317999999999998,2.881565546613371,0.47937586543227734,0.6049059457459305,-0.05960767887722973,-0.01039108180421433,-0.5712820401237715,0.0037297759208159346,0.02024259177274337,0.6328028447552289,-2595.372,781.739,0.6287962287938126,20.317999999999998,1051.9637035972764
15.9,-3645.9680115987844,732.5070797964393,19.759265436319563,-2595.372,781.739,20.317999999999998,2.8786157293073034,0.47712161710128265,0.5483204349015613,-0.036004034913704075,-0.021059911546637,-0.4889151009237831,0.002708256505793568,0.018836321492334173,0.6322067096184679,-2595.372,781.739,0.6287962287938126,20.317999999999998,1051.7490545460528
16.0,-3645.763193553028,732.7158605883905,19.806940659383642,-2595.372,781.739,20.317999999999998,2.8743647396306304,0.4751638831229499,0.5071229255611742,-0.04064440402893155,-0.019771706138806078,-0.4547297933247303,0.002567391762204059,0.019145204786742965,0.631723434197925,-2595.372,781.739,0.6287962287938126,20.317999999999998,1051.534682677264
16.1,-3645.5585604735693,732.9241281147317,19.850490119174456,-2595.372,781.739,20.317999999999998,2.870486848501517,0.4731672758735214,0.45737447623661465,-0.03813465336214428,-0.01988355361823313,-0.41778157371479807,0.0023465784192129597,0.01917159965259633,0.6313277853922599,-2595.372,781.739,0.6287962287938126,20.317999999999998,1051.320561047852
16.2,-3645.35412031673,733.1319054519462,19.889736256509266,-2595.372,781.739,20.317999999999998,2.8667378089582014,0.47118717239930324,0.42356661081821434,-0.03676001165035636,-0.019621426457635316,-0.298362797122675,0.002148243395831502,0.019231123959162235,0.6310043124540037,-2595.372,781.739,0.6287962287938126,20.317999999999998,1051.1066958377985
16.3,-3645.1498689538284,733.3392184558193,19.92506211662764,-2595.372,781.739,20.317999999999998,2.8631348461714463,0.4692429905819944,0.3977019168120801,-0.03531767884816972,-0.01917493485582389,-0.31527881423684057,0.0019623909706295477,0.019294171761835968,0.6307399103329099,-2595.372,781.739,0.6287962287938126,20.317999999999998,1050.8930808597734
16.400000000000002,-3644.9458000175614,733.5460931071251,19.956934473878192,-2595.372,781.739,20.317999999999998,2.8596742731885674,0.46735218542813844,0.3605108479708453,-0.03390762199933839,-0.018577883210675328,-0.3808564433876078,0.0017887175174727172,0.019361030118484248,0.6305237470368735,-2595.372,781.739,0.6287962287938126,20.317999999999998,1050.6797077732128
16.5,-3644.7419084809276,733.7525533810763,19.985692683093156,-2595.372,781.739,20.317999999999998,2.8563533217715786,0.46552741393985936,0.3215306281345589,-0.03252885260228666,-0.017882692601864925,-0.3194367138980174,0.0016267086385309394,0.019430638291314185,0.6303469553950289,-2595.372,781.739,0.6287962287938126,20.317999999999998,1050.4665698214933
16.6,-3644.5381842819784,733.9586252541184,20.01193823743823,-2595.372,781.739,20.317999999999998,2.8531685026681104,0.46377564690776557,0.2966235051912426,-0.03118065855107588,-0.017118282915555394,-0.24065948996317643,0.0014747497159443982,0.01950268262744995,0.6302024575078208,-2595.372,781.739,0.6287962287938126,20.317999999999998,1050.2536551354945
16.7,-3644.3346257517173,734.1643284315774,20.035731954657038,-2595.372,781.739,20.317999999999998,2.8501171900613635,0.46210375735674836,0.27339873014192373,-0.02986115992156435,-0.01630304302595409,-0.18213135681005266,0.0013329869117827571,0.019576092105401663,0.6300842770574091,-2595.372,781.739,0.6287962287938126,20.317999999999998,1050.0409607601175
16.8,-3644.1312338299713,734.3696798459737,20.056945717083043,-2595.372,781.739,20.317999999999998,2.8471962706837974,0.46051503830257473,0.2601972338292326,-0.028575071896970172,-0.015467821920541969,-0.15997076935219612,0.001201094788263447,0.019650102897482792,0.629987606395535,-2595.372,781.739,0.6287962287938126,20.317999999999998,1049.8284865561718
16.900000000000002,-3643.927997666662,734.5747027480144,20.076133869432727,-2595.372,781.739,20.317999999999998,2.8444021756819695,0.4590101929726399,0.24140457627148404,-0.027322801919176243,-0.01462716558415611,-0.2492655247473201,0.0010777941771607413,0.019724572910955168,0.6299085462456889,-2595.372,781.739,0.6287962287938126,20.317999999999998,1049.6162201858488
17.0,-3643.7249148566407,734.7794140622262,20.093319109386794,-2595.372,781.739,20.317999999999998,2.841731710299962,0.45758960518574343,0.21034412887976917,-0.026105883572761,-0.01379364655707338,-0.21592320641641372,0.0009627449837523014,0.019798940241337135,0.6298438524086283,-2595.372,781.739,0.6287962287938126,20.317999999999998,1049.4041582161587
17.1,-3643.5219741856276,734.9838355248828,20.109036237252596,-2595.372,781.739,20.317999999999998,2.8391809989674175,0.4562514636612252,0.1982199349882021,-0.024923534086765287,-0.012974989758836486,-0.10455140302535015,0.0008551902868111576,0.019873010283993006,0.6297909262141371,-2595.372,781.739,0.6287962287938126,20.317999999999998,1049.1922881227642
17.2,-3643.3191770027206,735.1879797184555,20.12304557783603,-2595.372,781.739,20.317999999999998,2.836747003482609,0.45499460723397617,0.1894338482746991,-0.023775960850345612,-0.012176831540106736,-0.07766787261926977,0.0007551400761557703,0.019946111800960196,0.6297476162416455,-2595.372,781.739,0.6287962287938126,20.317999999999998,1048.9806105378932
17.3,-3643.116512919013,735.3918661696147,20.135802646819805,-2595.372,781.739,20.317999999999998,2.8344258067973485,0.4538160973532039,0.18268636046434827,-0.022664432032481585,-0.01140566099076823,-0.16889076874247222,0.0006616874804804264,0.020018294910219215,0.6297121604040653,-2595.372,781.739,0.6287962287938126,20.317999999999998,1048.7691139436113
