time_s,x_m,y_m,z_m,ref_x_m,ref_y_m,ref_z_m,vx_mps,vy_mps,vz_mps,ax_mps2,ay_mps2,az_mps2,roll_rad,pitch_rad,yaw_rad,ft_N,tx_Nm,ty_Nm,tz_Nm,tracking_error_m
0.1,3639108.3069859445,-1008419.2657428276,350.0,3639100.1119260453,-1008418.1691462385,350.0,0.0,0.0,-8.952838470577263e-14,-1.1539801927190367,0.26105497402007427,-0.0716815422526178,0.026641414066894804,0.11806901001024113,0.0,48.999999999995524,2.66414140668948,11.806901001024112,0.0,8.268103218472996
0.2,3639108.2954461426,-1008419.2631322778,349.99928318457745,3639100.1119260453,-1008418.1691462385,350.0,-0.11539801927190368,0.02610549740200743,-0.007168154225351309,-1.3363296816799204,0.38346582273540153,-0.10164739554806076,0.051643020790962536,0.15580372728360425,0.0,48.99999999999921,-0.16398073428270687,-8.033429273687801,0.0,8.25631922533557
0.30000000000000004,3639108.268719549,-1008419.2554629613,349.9972502366665,3639100.1119260453,-1008418.1691462385,350.0,-0.26726593633598417,0.07669316454708033,-0.02032947910970169,-1.6244434024973506,0.6239104737657982,-0.15706717854748314,0.07578111111055513,0.17799840967109018,0.0,48.99999999999867,-0.08635164044751403,-1.5540034885877172,0.0,8.228813513689634
0.4,3639108.2246908788,-1008419.240374202,349.99339207767304,3639100.1119260453,-1008418.1691462385,350.0,-0.4402866997713738,0.15088759215516706,-0.038581589934847935,-1.7841436824895525,0.8594948861587544,-0.2030760077094601,0.09986442699404106,0.18963282317452723,0.0,49.000000000003666,-0.005477443610666559,-1.0560268884048865,0.0,8.18318558130747
0.5,3639108.1622814117,-1008419.2155149878,349.9872976096079,3639100.1119260453,-1008418.1691462385,350.0,-0.6240946728338945,0.24859214177883115,-0.0609446806515937,-1.871100897390201,1.0987653194487996,-0.24409232872221848,0.12486350305269642,0.1970963358974671,0.0,49.00000000000252,0.09157601751694196,-0.41709007804971887,0.0,8.118082928632724
0.6000000000000001,3639108.080830724,-1008419.1784509222,349.97855760403996,3639100.1119260453,-1008418.1691462385,350.0,-0.8145068792494141,0.370640656044927,-0.08740005567929164,-1.9532891590325274,1.3418280844122943,-0.29177849681966783,0.14986350212923344,0.20814827313558232,0.0,49.00000000000398,9.230178816711643e-05,0.35884245151753236,0.0,8.032595937764544
0.7000000000000001,3639107.9793554735,-1008419.1267551464,349.9666275660384,3639100.1119260453,-1008418.1691462385,350.0,-1.0147525046404002,0.5169577586612901,-0.11930038001552729,-2.0473426224562274,1.3746533136147292,-0.3158629058619066,0.13161800732514112,0.21705575070012414,0.0,49.000000000000256,-4.324549388062934,-0.21444596735733676,0.0,7.925564607566644
0.8,3639107.856957933,-1008419.0621980146,349.9515703023533,3639100.1119260453,-1008418.1691462385,350.0,-1.2239754037406594,0.6455713187678728,-0.15057263685167294,-2.136328584323632,1.1637503061164347,-0.3076432499200471,0.10646273557003952,0.22567013377139183,0.0,48.99999999999967,-0.6909776951009272,-0.029309449327413334,0.0,7.796499589647255
0.9,3639107.712756111,-1008418.9872272325,349.93348739935334,3639100.1119260453,-1008418.1691462385,350.0,-1.4420182215051265,0.749707819884577,-0.18082902999953668,-2.1972841007309167,0.9184544415420821,-0.2945842167021465,0.08126737008533119,0.2286683996186092,0.0,49.000000000000085,-0.004009372960672667,-0.561611722405032,0.0,7.645017862915758
1.0,3639107.5464128884,-1008418.9043010118,349.9125384513341,3639100.1119260453,-1008418.1691462385,350.0,-1.6634322238868424,0.8292622070762891,-0.20948948019210223,-2.241104529995079,0.6730675785999991,-0.284292057558056,0.056212383150463195,0.233929470300066,0.0,48.99999999999876,0.014037854984033114,0.2262804834239409,0.0,7.471258038956828
1.1,3639107.3573889756,-1008418.8158688783,349.888769707183,3639100.1119260453,-1008418.1691462385,350.0,-1.8902391275041421,0.8843213356045768,-0.23768744151114787,-2.319438349845756,0.42840107545864115,-0.289003223902381,0.03125109324584855,0.24446506559795425,0.0,48.99999999999956,0.00936970302533548,0.5274524616431465,0.0,7.2751189285915325
1.2000000000000002,3639107.144656986,-1008418.7243746361,349.86204069468573,3639100.1119260453,-1008418.1691462385,350.0,-2.127319893855994,0.9149424221680174,-0.2672901249725785,-2.429524527219753,0.183866400649344,-0.3086867290544517,0.006277789772380495,0.25671769495218133,0.0,49.00000000000054,-0.0012013568853409937,0.17170340563388,0.0,7.055963139651167
1.3,3639106.9070425825,-1008418.6322651745,349.8320982159535,3639100.1119260453,-1008418.1691462385,350.0,-2.3761440329480923,0.9210946157344455,-0.29942478732203814,-2.527587368377958,-0.06093588014938156,-0.33263936648228176,-0.018714734871594346,0.26507106362262695,0.0,48.99999999999938,-0.0019221170506786766,-0.38992606837814137,0.0,6.812949354929321
1.4000000000000001,3639106.643758846,-1008418.5419896499,349.79871641612664,3639100.1119260453,-1008418.1691462385,350.0,-2.632837367531586,0.9027552461381412,-0.3338179982690349,-2.6219154150532873,-0.3058300851384077,-0.3631761973067287,-0.043714582151195086,0.2769404943378057,0.0,48.99999999999781,-0.0007322635625894154,0.35160620447331126,0.0,6.545560864206026
1.5,3639106.3537061345,-1008418.45599679,349.7615104134483,3639100.1119260453,-1008418.1691462385,350.0,-2.900527115958749,0.859928598706764,-0.3720600267833838,-2.507766537876684,-0.5505697845225561,-0.34468442978323743,-0.06871458197473287,0.24154265161937033,0.0,48.99999999999943,-1.5254393705548835e-05,-4.726727343361414,0.0,6.2529176552949295
1.6,3639106.040267067,-1008418.376732661,349.7212349250257,3639100.1119260453,-1008418.1691462385,350.0,-3.134390675106923,0.7926412892336302,-0.4027548842256824,-2.204887292564454,-0.7949661439134506,-0.2861536113666634,-0.09371458197476379,0.21389952741295784,0.0,49.00000000000211,-1.7649313069848764e-08,0.77547185120229,0.0,5.9385208057356795
1.7000000000000002,3639105.7061166097,-1008418.306639124,349.67830585012007,3639100.1119260453,-1008418.1691462385,350.0,-3.34150457447164,0.7009353699240737,-0.42929074905671655,-1.9238028178831001,-1.0388656762063202,-0.24893062653239317,-0.11871458197492957,0.1835865286608369,0.0,48.99999999999931,-1.3486184572813205e-11,-0.26698745457084316,0.0,5.60511904345325
1.8,3639105.354201486,-1008418.2481523086,349.63305174916684,3639100.1119260453,-1008418.1691462385,350.0,-3.519151238683542,0.5848681539923661,-0.452541009532161,-1.645847158135279,-1.2301921750498095,-0.2189907998451872,-0.13301559015145967,0.15663272018950694,0.0,49.000000000001506,1.0698991823635686,0.3359190280790947,0.0,5.2556964118018
1.9000000000000001,3639104.987134085,-1008418.2026626151,349.58574285826427,3639100.1119260453,-1008418.1691462385,350.0,-3.6706740060986967,0.4548969349141119,-0.473088909025754,-1.3564851812147865,-1.2894510155551708,-0.18171559675252258,-0.13090310641850897,0.12358768804612542,0.0,48.99999999999978,1.6413491909480784,-0.609122367205154,0.0,4.892891349498812
2.0,3639104.6080892575,-1008418.16996482,349.536854445376,3639100.1119260453,-1008418.1691462385,350.0,-3.790448274926499,0.32697795088133197,-0.48888412888266547,-1.0592671325607448,-1.2135446682122577,-0.13453419079594564,-0.11740211307110368,0.09475130260315089,0.0,48.99999999999987,1.1388509614454594,0.4208646700406983,0.0,4.519954436257212
2.1,3639104.2198365144,-1008418.1487460199,349.4868548706575,3639100.1119260453,-1008418.1691462385,350.0,-3.882527432610846,0.2121880012716605,-0.4999957471849433,-0.7749663498957702,-1.051136205570621,-0.089005056085937,-0.09753958255365477,0.0645494947457497,0.0,49.00000000000206,0.636153717004363,-0.13654224144266536,0.0,4.139886775678447
2.2,3639103.82529236,-1008418.137070949,349.4361863566475,3639100.1119260453,-1008418.1691462385,350.0,-3.9454415449056532,0.11675070976720753,-0.5066851400998529,-0.4770941359873966,-0.8458394230322175,-0.050038208516204996,-0.07530645684016625,0.033268484836932885,0.0,48.999999999997364,0.23705951960396132,-0.10792020514156256,0.0,3.756062304633375
2.3000000000000003,3639103.427497734,-1008418.1327689373,349.3851860177587,3639100.1119260453,-1008418.1691462385,350.0,-3.9779462598083253,0.04302011666521682,-0.5100033888881843,-0.16857715487374847,-0.631071149232064,-0.023626902050623677,-0.0535803646059307,0.0012372003654094951,0.0,48.99999999999916,-0.05070334792529742,-0.07502745627065771,0.0,3.372289305935073
2.4000000000000004,3639103.029582036,-1008418.1337152893,349.33404496570773,3639100.1119260453,-1008418.1691462385,350.0,-3.9791569758804033,-0.009463520079205368,-0.5114105205099776,0.1391013393493239,-0.4300817261593325,-0.012056701481979015,-0.034223729921108045,-0.0296451519188202,0.0,49.000000000000355,-0.23694575494128925,0.11489321872936933,0.0,2.99290292880304
2.5,3639102.634569437,-1008418.1380149121,349.2828034927893,3639100.1119260453,-1008418.1691462385,350.0,-3.950125991938462,-0.04299622856664965,-0.5124147291845802,0.4405442048790853,-0.257079054168204,-0.014750086005856922,-0.01824907651302406,-0.0603301579546768,0.0,48.99999999999955,-0.33819812767386725,0.019734624837309075,0.0,2.622798061261448
2.6,3639102.2454646234,-1008418.1441028452,349.2313674390182,3639100.1119260453,-1008418.1691462385,350.0,-3.8910481349045853,-0.06087933091284602,-0.5143605377111489,0.7344004992825575,-0.11886257211632228,-0.0295239214809615,-0.006009640334013288,-0.08971604842804067,0.0,48.99999999999967,-0.37352172290732105,0.12991155624927386,0.0,2.2679087393218
2.7,3639101.8651400344,-1008418.1507797196,349.17953548767014,3639100.1119260453,-1008418.1691462385,350.0,-3.803245892081951,-0.06676874298991413,-0.5183195134807724,1.0118919492556913,-0.016649522490413682,-0.053415949261282236,0.002611745396747432,-0.11718283931823348,0.0,48.99999999999951,-0.36180504482500525,0.19190995831710467,0.0,1.935783726691698
2.8000000000000003,3639101.49627306,-1008418.1572006431,349.1270311149138,3639100.1119260453,-1008418.1691462385,350.0,-3.6886697450534465,-0.06420923541092877,-0.5250437275634053,1.2731225799209724,0.052158429169420706,-0.08407345449481918,0.008032921344857216,-0.1434020953016386,0.0,49.000000000000334,-0.32002097826509357,0.12475349067876824,0.0,1.6366533012202997
2.9000000000000004,3639101.141410922,-1008418.1628343489,349.0735176944758,3639100.1119260453,-1008418.1691462385,350.0,-3.548621376097756,-0.05633705715602997,-0.5351342043797364,1.5016685153744902,0.09243417641792562,-0.11672726590812443,0.01083149447520975,-0.16430431838267062,0.0,48.99999999999995,-0.2622602817757248,0.5317032902373131,0.0,1.3850084527395579
3.0,3639100.802577318,-1008418.1674065889,349.0186787764013,3639100.1119260453,-1008418.1691462385,350.0,-3.3883360419785493,-0.045722400127343694,-0.5483891807450303,1.68947844614868,0.11009031907240624,-0.1477571531281754,0.011636391976957206,-0.18225463715221543,0.0,49.00000000000028,-0.19936756286050805,0.2951904311487203,0.0,1.1999973129175523
3.1,3639100.4815047495,-1008418.1708384883,348.9622102129008,3639100.1119260453,-1008418.1691462385,350.0,-3.21072568686802,-0.03431899334154873,-0.5646856350053713,1.8455595302686483,0.11116677929232185,-0.1762510901059584,0.011051193385095477,-0.19668740091456627,0.0,49.00000000000004,-0.13900960936091816,0.35175550071939665,0.0,1.101634660194996
3.2,3639100.179582336,-1008418.1731873926,348.90384627302416,3639100.1119260453,-1008418.1691462385,350.0,-3.0192241359248193,-0.023489044268879305,-0.5836393987662221,1.9742268752850975,0.10121727963598613,-0.20164177301393282,0.009605766960533797,-0.20902198484428772,0.0,49.00000000000008,-0.08602278326999539,0.20981798326293719,0.0,1.0982471023242897
3.3000000000000003,3639099.897994305,-1008418.1745949464,348.84334487406335,3639100.1119260453,-1008418.1691462385,350.0,-2.8158803118109996,-0.01407553741435149,-0.6050139896081579,2.076289327841385,0.08495015230018398,-0.22295448885995883,0.007731223554217299,-0.21796710909450234,0.0,48.99999999999996,-0.042911698175481586,0.33894596795068477,0.0,1.1762854918196282
3.4000000000000004,3639099.6375976778,-1008418.1752448478,348.7805218444095,3639092.179343527,-1008416.6086763305,350.0,-2.603966270356542,-0.0064990138088424935,-0.6282302965382138,1.6538081439600933,0.22985331648603186,-0.15603744786118057,0.03918772274427267,-0.12166616773947833,0.0,49.00000000000172,3.3331042596371865,10.52460656052386,0.0,7.717954318718846
3.5,3639099.3890858092,-1008418.1720553351,348.71689969649145,3639092.179343527,-1008416.6086763305,350.0,-2.4851186830189813,0.03189512588285469,-0.6362214791803942,0.9922045116947462,0.5061836192579376,-0.06626195014976011,0.06416911474129133,-0.08147528164527254,0.0,48.99999999999928,-0.6475107193036702,-5.611005526081822,0.0,7.48804941720359
3.6,3639099.1485332726,-1008418.1625815642,348.65275142783463,3639092.179343527,-1008416.6086763305,350.0,-2.4055253680175923,0.094737710042745,-0.6414826865681656,0.6602951052518211,0.739566019728049,-0.05185647996832188,0.08691614701968477,-0.0537651908795794,0.0,48.99999999999869,-0.2234359718625232,-1.2480795328512642,0.0,7.266313088307808
3.7,3639098.913227306,-1008418.1446007312,348.5880921503172,3639092.179343527,-1008416.6086763305,350.0,-2.3530596619686173,0.17980832982846462,-0.6465927751740586,0.4258694277594923,0.9605371232435173,-0.05761120399214459,0.10943955857298507,-0.03358287847464703,0.0,48.99999999999883,-0.022362072509313543,-0.7527778360760771,0.0,7.0496622819857375
3.8000000000000003,3639098.681192158,-1008418.1159162177,348.52279165758057,3639092.179343527,-1008416.6086763305,350.0,-2.3203514824656937,0.2868451346914486,-0.6530049273665945,0.2442513279790237,1.1919556995016178,-0.07694626250984715,0.1344396473834598,-0.01662226440412931,0.0,49.00000000000107,0.24766772571744156,-0.3221698334414651,0.0,6.835784679144893
3.9000000000000004,3639098.450771218,-1008418.0740962707,348.45659345481295,3639092.179343527,-1008416.6086763305,350.0,-2.3042093963728125,0.4181994697287884,-0.661982027676028,0.10039665946915832,1.4347133553105864,-0.10707409609603902,0.15943825162971317,-0.004069220293282674,0.0,49.000000000000206,-0.0001484564221343903,-0.44075699596710777,0.0,6.622715806075598
4.0,3639098.220744003,-1008418.0167174902,348.38915148015434,3639092.179343527,-1008416.6086763305,350.0,-2.3002721505718626,0.5737878057535655,-0.6744197465858024,-0.020964433777377778,1.5929000562167914,-0.13060599990649457,0.16709451368440204,0.008413331002963691,0.0,48.99999999999941,-1.7342342191564524,-0.00704928146002724,0.0,6.409050832315335
4.1000000000000005,3639097.9899037746,-1008417.9430395421,348.3203411573886,3639092.179343527,-1008416.6086763305,350.0,-2.308402283128288,0.7367794809721471,-0.6881032276573269,-0.14076165280217623,1.5075194644592855,-0.11864040754029936,0.14181386033745502,0.020639459159761717,0.0,48.99999999999978,-3.293691540163585,-0.02564231394483412,0.0,6.193899369254575
4.2,3639097.7570613264,-1008417.8555103722,348.25052637457924,3639092.179343527,-1008416.6086763305,350.0,-2.3284244811322976,0.875291698645423,-0.6981478280938623,-0.2595335486853365,1.2617914755226716,-0.08601071095539892,0.11643235760026524,0.03276286135962573,0.0,49.00000000000003,-0.010084939024278698,-0.01027259569340121,0.0,5.977138859130202
4.3,3639097.521030427,-1008417.7565965946,348.1799958375944,3639092.179343527,-1008416.6086763305,350.0,-2.360308992865355,0.9891377760766805,-0.7053053698484066,-0.3544101054915689,1.0144743893092825,-0.05995571462749094,0.09099163143966751,0.03996932258799199,0.0,49.00000000000002,-0.005922342340794661,-0.4916940971497748,0.0,5.758798053326715
4.4,3639097.2810997767,-1008417.6487779369,348.10898194049247,3639092.179343527,-1008416.6086763305,350.0,-2.3993065022306115,1.0781865765072796,-0.7101389710193605,-0.42628511887254383,0.7670502651391935,-0.040220610328442596,0.06572205050291975,0.04732337671844004,0.0,49.000000000000824,0.017114522384997447,0.014759290208178294,0.0,5.539465451005627
4.5,3639097.036543175,-1008417.534523154,348.0376469913011,3639092.179343527,-1008416.6086763305,350.0,-2.445566016639864,1.1425478291045197,-0.7133494919140951,-0.5066761247851197,0.5214671488015235,-0.02787276087473689,0.0407584035825838,0.05627611750310452,0.0,49.00000000000004,0.030593401641180455,0.15986866542164335,0.0,5.319812975205523
4.6000000000000005,3639096.7864790023,-1008417.4162751534,347.96607563898164,3639092.179343527,-1008416.6086763305,350.0,-2.5006417271876358,1.1824800062675842,-0.7157135231943079,-0.5679960509164239,0.27966668828570285,-0.021219572492074068,0.01632844035612297,0.05976138442832133,0.0,49.00000000000003,0.05336836938751283,-0.5467473859447666,0.0,5.100466787599165
4.7,3639096.5305624795,-1008417.2964270368,347.89431629834036,3639092.179343527,-1008416.6086763305,350.0,-2.559165226823149,1.1984811667616604,-0.7175934064125099,-0.6555685793257311,0.041077384922060034,-0.023015160734047857,-0.007944658584228277,0.07414189480726022,0.0,48.99999999999958,0.01568642861095826,1.0895243453722068,0.0,4.88262339900044
4.800000000000001,3639096.267386935,-1008417.1773574884,347.82228464280627,3639092.179343527,-1008416.6086763305,350.0,-2.631755443052782,1.190695483251996,-0.7203165553411174,-0.8023037313640007,-0.19743042912323983,-0.035927115684119215,-0.03235299307240693,0.08983152312460135,0.0,48.99999999999985,-0.013523554782740711,0.13091179384022478,0.0,4.666684191373339
4.9,3639095.9954243377,-1008417.0614579803,347.7498067598513,3639092.179343527,-1008416.6086763305,350.0,-2.7196259730959493,1.1589950809370126,-0.7247788295493337,-0.8295467344539862,-0.43784654725400873,-0.0458664357412184,-0.05704001443185308,0.07984597895683095,0.0,49.000000000000114,-0.027868687126749354,-2.5675172485111535,0.0,4.453184657373203
5.0,3639095.7156578586,-1008416.9511453629,347.6768577756024,3639092.179343527,-1008416.6086763305,350.0,-2.7976647899435787,1.1031261738011946,-0.7294898424893611,-0.6463380838579766,-0.6805427916841564,-0.04672923114434102,-0.08196895460301454,0.05247447042455173,0.0,48.9999999999999,-0.024191881171530726,-1.7385964364508808,0.0,4.2449727777476465
5.1000000000000005,3639095.4307684996,-1008416.8488567107,347.60344530802456,3639092.179343527,-1008416.6086763305,350.0,-2.8488935898675445,1.022886522600181,-0.734124675778202,-0.3756758420338908,-0.9243312266871442,-0.0526460602082488,-0.10696569158897887,0.02453693939176192,0.0,48.99999999999993,-0.006779681480287155,-0.05660225005105939,0.0,4.046347162320128
5.2,3639095.143488504,-1008416.7570307179,347.5294434025715,3639092.179343527,-1008416.6086763305,350.0,-2.872799958350357,0.9182599284637658,-0.7400190545310109,-0.10182411315642703,-1.167880299482973,-0.07210765805673702,-0.13196376657239323,-0.003645526658872491,0.0,48.99999999999996,-0.0001337997450029677,-0.024493501784460144,0.0,3.8615818480121806
5.300000000000001,3639094.856562663,-1008416.6780996716,347.4545887818325,3639092.179343527,-1008416.6086763305,350.0,-2.8692584124988296,0.7893104627035862,-0.7485462073895494,0.16903321871748034,-1.410715442287381,-0.10524044807531796,-0.15696376533025458,-0.03127223363734521,0.0,48.999999999999794,-0.0001923774447001205,0.055575907216169174,0.0,3.694785537801398
5.4,3639094.5726633314,-1008416.6144879876,347.3784820674179,3639092.179343527,-1008416.6086763305,350.0,-2.838993314606861,0.6361168400062895,-0.7610671441460745,0.4329175294326042,-1.6177122707902094,-0.1454231620291364,-0.17471282159910534,-0.05838932042893019,0.0,49.00000000000009,0.7250942489010588,0.050962018688773376,0.0,3.5496999495007433
5.5,3639094.2943958407,-1008416.5679111867,347.30071898343834,3639092.179343527,-1008416.6086763305,350.0,-2.782674906612309,0.46576800854554545,-0.7776308397953765,0.6926903660691295,-1.661034532812456,-0.16762925513286842,-0.16592155625900848,-0.08516879156365492,0.0,49.00000000000033,2.6540321608947632,0.033761565686024585,0.0,3.429464403131714
5.6000000000000005,3639094.0243503167,-1008416.5375201934,347.22125968392106,3639092.179343527,-1008416.6086763305,350.0,-2.7004552413930347,0.30390993344379813,-0.7945929951726481,0.9431745652907431,-1.497233768342873,-0.16260912577919306,-0.14086198171746314,-0.10989432453964806,0.0,49.00000000000008,1.6268309201448465,0.20539381587315994,0.0,3.3362420466042555
5.7,3639093.7649463173,-1008416.5208880679,347.14024441742595,3639092.179343527,-1008416.6086763305,350.0,-2.5940399935541603,0.16632125487697041,-0.8101526649512152,1.1716886812535634,-1.2537813314124264,-0.1527881570664431,-0.11573533003006771,-0.13179348173991137,0.0,49.000000000000036,0.006707714585010848,0.2826375775729838,0.0,3.2710923220153836
5.800000000000001,3639093.5183345666,-1008416.5155727012,347.05772935476733,3639092.179343527,-1008416.6086763305,350.0,-2.466117505142322,0.05315366716131281,-0.8251506265859369,1.3741632207049115,-1.0097165003023651,-0.1507378479177257,-0.09071181611800394,-0.1511015417941149,0.0,49.0,-0.010313777533166039,0.2591097146059782,0.0,3.2339637968394466
5.9,3639093.2864138316,-1008416.5191349058,346.97369933131387,3639092.179343527,-1008416.6086763305,350.0,-2.319207349413178,-0.03562204518350301,-0.8403002345347603,1.5508114139977032,-0.7659303574132923,-0.15495959633897183,-0.0657722677154268,-0.16773013804588036,0.0,49.0,-0.008396550948662668,0.26794638024380524,0.0,3.2236808252433184
6.0,3639093.070818309,-1008416.5291381462,346.8880850767285,3639092.179343527,-1008416.6086763305,350.0,-2.1559552223427825,-0.1000324043213451,-0.8561425458537311,1.7056039703323798,-0.5218870143708761,-0.16474021304105335,-0.04079401131694595,-0.18266386834722545,0.0,49.00000000000048,0.0038707995903698744,0.1694865950420374,0.0,3.2380654872054655
6.1000000000000005,3639092.8730096538,-1008416.543138091,346.8007602490142,3639092.179343527,-1008416.6086763305,350.0,-1.9780865553467015,-0.1399994480576781,-0.873248277142971,1.8533973945903224,-0.27722281902633084,-0.1819247042596004,-0.01579404445949518,-0.19806269195068973,0.0,49.00000000000037,0.00217104589699196,-0.04650933021192086,0.0,3.2742331835551846
6.2,3639092.6944820792,-1008416.5586857878,346.71150750034366,3639092.179343527,-1008416.6086763305,350.0,-1.7852757434247175,-0.15547696812661155,-0.8925274867056512,2.013575832791968,-0.06086044659837975,-0.21014167713836507,0.0033728949148919274,-0.21586182876978033,0.0,49.0000000000002,-0.5833027483063657,-0.2400313215626297,0.0,3.32897126789527
6.300000000000001,3639092.53694494,-1008416.5739029415,346.61997983908657,3639092.179343527,-1008416.6086763305,350.0,-1.5753713887883074,-0.15217153737735392,-0.9152766125706442,2.2019087781215587,0.09528165956590051,-0.2518340469182103,0.01607304017606516,-0.23743606798577827,0.0,49.00000000000002,-0.6466794113213876,-0.37751023969073416,0.0,3.3990622600019984
6.4,3639092.4024555413,-1008416.5875450051,346.52569040947765,3639092.179343527,-1008416.6086763305,350.0,-1.3448939878004056,-0.13642063621343153,-0.9428942960892934,2.374164802520805,0.19226835304596623,-0.29421092973321095,0.023168163853733933,-0.25207027379843716,0.0,48.99999999999993,-0.5605021583504455,0.6940033403339045,0.0,3.48153021451119
6.5,3639092.2924016984,-1008416.5989167918,346.4282785296259,3639092.179343527,-1008416.6086763305,350.0,-1.1005384282841482,-0.11371786676816081,-0.9741187985172861,2.462333848780741,0.24006383938581993,-0.31745120223492496,0.025829400964716212,-0.25604779378381315,0.0,48.99999999999996,-0.4433886566686497,1.065668582728288,0.0,3.5735237036585734
6.6000000000000005,3639092.2071589767,-1008416.6077575787,346.3276400759723,3639084.345801484,-1008414.6757574441,350.0,-0.8524272180442569,-0.08840786833626749,-1.0063845365362785,1.7859206709122812,0.42447194632004553,-0.20089455919762145,0.06083792128332832,-0.11173756018063843,0.0,49.00000000000029,3.234728320762983,14.828775358855072,0.0,8.889307822450215
6.7,3639092.1328235473,-1008416.6106399265,346.2262103049366,3639084.345801484,-1008414.6757574441,350.0,-0.7433542941016904,-0.02882347750415193,-1.0142977103568107,0.8111821127702918,0.7187152821773257,-0.0649095698870017,0.08598209336499128,-0.05447655580709109,0.0,48.999999999997094,-0.9864348236949143,-8.704922922962737,0.0,8.866959540948915
6.800000000000001,3639092.0638044677,-1008416.6051064077,346.12427365988526,3639084.345801484,-1008414.6757574441,350.0,-0.6901907954901989,0.05533518809919799,-1.019366450513679,0.3661536366069691,0.9594873290211807,-0.05607872220906973,0.11016022015284109,-0.020603098504041677,0.0,49.0000000000017,-0.09660452938131579,-2.3387547070497923,0.0,8.849362245104079
6.9,3639091.996792111,-1008416.5887990089,346.0217223144054,3639084.345801484,-1008414.6757574441,350.0,-0.6701235667802963,0.16307398830008418,-1.0255134547986247,0.08095933529368438,1.1820194850232673,-0.07318863863909542,0.13167105479199653,0.003988990316081069,0.0,49.0000000000002,-0.2667292148694351,-0.9281368482926668,0.0,8.833123963258434
7.0,3639091.929392218,-1008416.5596251003,345.91832189658123,3639084.345801484,-1008414.6757574441,350.0,-0.6739989284314621,0.2917390851038506,-1.0340041782414982,-0.12454896917412528,1.369430699716303,-0.09769252585963262,0.14873249238585842,0.02170502169300133,0.0,49.000000000000036,-0.4449397045293572,-0.6876057443202483,0.0,8.815889173035327
7.1000000000000005,3639091.859888882,-1008416.5159290875,345.8138167005842,3639084.345801484,-1008414.6757574441,350.0,-0.6950333606151214,0.4369601282433452,-1.0450519599705512,-0.2712837579594254,1.5606776045680064,-0.1296927359241531,0.1711553139014297,0.03440979017672086,0.0,49.00000000000002,0.5361383921709408,-0.5011262893200731,0.0,8.796128223223477
7.2,3639091.787063314,-1008416.4555416269,345.70782242804154,3639084.345801484,-1008414.6757574441,350.0,-0.7282556800233472,0.603874606017452,-1.059942725426329,-0.37415156515448134,1.785173281845263,-0.1720505420535723,0.19523816658692705,0.04329290248855976,0.0,49.0,0.16600311699260414,-0.3821656171880632,0.0,8.77284433198311
7.300000000000001,3639091.7100769468,-1008416.3761421484,345.59987622120343,3639084.345801484,-1008414.6757574441,350.0,-0.7698636736460178,0.7939947846123983,-1.0794620683812657,-0.4559155900982681,1.7742505630962233,-0.17368140696347734,0.16889357429323204,0.05133958377751889,0.0,48.99999999999988,-5.042744497919234,-0.08364310228797671,0.0,8.74556747759258
7.4,3639091.628133067,-1008416.2802696766,345.4904083205215,3639084.345801484,-1008414.6757574441,350.0,-0.8194387980430009,0.9587247186366973,-1.0946790068190244,-0.5389656335887416,1.5198874878805566,-0.13454366620679448,0.14257186334949534,0.0600511329461828,0.0,49.00000000000096,0.0022881349958312944,0.06648678797047763,0.0,8.71454129061573
7.5,3639091.540367387,-1008416.1704724483,345.3797712403593,3639084.345801484,-1008414.6757574441,350.0,-0.8776568003637658,1.0979722821885085,-1.1063708016226246,-0.6203009712758671,1.2652668934207796,-0.10275860691507344,0.11639099366276795,0.06769526433796766,0.0,49.00000000000025,0.014084125700931234,-0.10674177768790519,0.0,8.680003759611811
7.6000000000000005,3639091.4460174874,-1008416.0492946386,345.26824816753907,3639084.345801484,-1008414.6757574441,350.0,-0.9434989922981745,1.2117780973208532,-1.115230728202039,-0.6904573878713203,1.0118398082024607,-0.07773825208005025,0.0904929942767442,0.07409443316163468,0.0,49.000000000000135,0.028287030070364035,-0.12449625681178342,0.0,8.64228830381851
7.7,3639091.3444426595,-1008415.9192606142,345.1560563223352,3639084.345801484,-1008414.6757574441,350.0,-1.01574827793803,1.300340243829001,-1.1219184520386347,-0.7564020639351776,0.7611433741603628,-0.05978328126411192,0.06501163095985957,0.0809029560187003,0.0,48.99999999999968,0.04166360691391057,0.040935403339860614,0.0,8.60180613548
7.800000000000001,3639091.234964719,-1008415.7828599369,345.0433375838897,3639084.345801484,-1008414.6757574441,350.0,-1.0947794050852102,1.3640067721529257,-1.1271873844548614,-0.8148045423055352,0.5144359965368395,-0.04828784922982976,0.04003178409770703,0.08581659665240479,0.0,48.99999999999942,0.05015164547321069,-0.18948822233611412,0.0,8.558898779525485
7.9,3639091.1170938006,-1008415.6425371927,344.93017998170126,3639084.345801484,-1008414.6757574441,350.0,-1.178709186399137,1.4032274431363692,-1.1315760218846007,-0.8562496768166659,0.27246371474381537,-0.042030394601320076,0.015584377732711853,0.08923138584473687,0.0,48.99999999999989,0.053244049715736166,-0.14988514413724002,0.0,8.513996578501718
8.0,3639090.9904908664,-1008415.5006872412,344.81662063536373,3639084.345801484,-1008414.6757574441,350.0,-1.2660293404485428,1.4184995151016886,-1.1355934633751255,-0.91111957996476,0.033022134247484125,-0.0433102290141818,-0.008844651148367473,0.09699638497898998,0.0,49.000000000000696,0.0018377483915851586,0.43502099419210183,0.0,8.467575083696238
8.1,3639090.8543975563,-1008415.3597040542,344.702596828595,3639084.345801484,-1008414.6757574441,350.0,-1.3609331023920883,1.409831869985866,-1.140238067687437,-0.9858797972808988,-0.20656071352149574,-0.05271294972841112,-0.03331687518349962,0.10460801258285114,0.0,48.999999999999446,-0.004319515405282352,-0.015337153039194126,0.0,8.419743829833553
8.200000000000001,3639090.708077026,-1008415.221985317,344.58798322326294,3639084.345801484,-1008414.6757574441,350.0,-1.4632052999047238,1.3771873723973889,-1.1461360533208078,-1.0530332898952368,-0.44612990948329134,-0.06774595015618079,-0.05776833367513413,0.11095761695692004,0.0,48.99999999999981,0.0020765543497643893,-0.12620232297922684,0.0,8.370593799483462
8.3,3639090.55092305,-1008415.0899247281,344.4726044974911,3639084.345801484,-1008414.6757574441,350.0,-1.5715397603711367,1.3206058880892078,-1.1537872577186732,-1.105563753431679,-0.6829026670151253,-0.08727362303402497,-0.08172261763689001,0.1157233654123751,0.0,48.99999999999969,0.04971745298786184,-0.15838559186138357,0.0,8.320286607449251
8.4,3639090.382491245,-1008414.9658640443,344.3562454196983,3639084.345801484,-1008414.6757574441,350.0,-1.6843180505910589,1.2406068389943643,-1.1635907779276127,-1.154429841424335,-0.9217359511684142,-0.11279479335950082,-0.10667992697998005,0.12150584821011921,0.0,48.99999999999933,-0.100302538133416,0.10167343422890515,0.0,8.269084040801205
8.5,3639090.202248672,-1008414.8522381745,344.23861079805926,3639084.345801484,-1008414.6757574441,350.0,-1.8024257286560028,1.1362586978555256,-1.1763462163905734,-1.244829086486149,-1.165109079871538,-0.1504643186254473,-0.1316798843201139,0.13510545276560465,0.0,49.00000000000007,-0.004264799704380767,0.7817121757741319,0.0,8.217221224503515
8.6,3639090.0089202854,-1008414.7514796723,344.119242433894,3639084.345801484,-1008414.6757574441,350.0,-1.9332838678882878,1.0075850230200576,-1.1936836416527021,-1.3653231710332268,-1.4079625366180073,-0.1992213471703792,-0.15667988354045476,0.14744180451062958,0.0,48.99999999999866,-4.188020700341614e-06,-0.12632528104605073,0.0,8.164554976700575
8.700000000000001,3639089.801371249,-1008414.6660130533,343.9976233853115,3639084.345801484,-1008414.6757574441,350.0,-2.07549036286265,0.8546661905319222,-1.2161904858246495,-1.4679239693943913,-1.6499362883296889,-0.25298754227289866,-0.1816798872464795,0.15770539417596818,0.0,48.99999999999978,-4.485683889018787e-07,-0.20727620796863067,0.0,8.111218246305683
8.8,3639089.5786843826,-1008414.5982532768,343.87319527030076,3639084.345801484,-1008414.6757574441,350.0,-2.226868661767168,0.6775977653541185,-1.244281150107282,-1.5645286144346109,-1.8757773427622637,-0.31004526673980326,-0.20353195563103732,0.16910255632916396,0.0,49.000000000001364,0.31479353214669237,0.11335724878571612,0.0,8.057717203031045
8.9,3639089.339844774,-1008414.5503022046,343.7453753163835,3639084.345801484,-1008414.6757574441,350.0,-2.388396085749571,0.47951072197947087,-1.27819953917261,-1.685113464272245,-1.8840071511774166,-0.3323391060418297,-0.18338781414755967,0.18315312556664454,0.0,49.000000000001144,4.199620986803547,0.2653407084284789,0.0,8.004782154057848
9.0,3639089.0834556385,-1008414.5202225711,343.61430041925195,3639084.345801484,-1008414.6757574441,350.0,-2.5638913546216155,0.30079633511863657,-1.3107489713156477,-1.753942859188621,-1.6660114041881133,-0.3040557740259917,-0.15830103019436542,0.1821409677689116,0.0,48.999999999999886,0.4942642469716604,-1.506272703521352,0.0,7.9527804648064135
9.1,3639088.809537173,-1008414.505591727,343.48039934985417,3639084.345801484,-1008414.6757574441,350.0,-2.7391846575872942,0.14630844114184932,-1.3390106939778081,-1.5940011467610624,-1.4232935301167866,-0.23802504430771965,-0.13322107439987813,0.14828763545286625,0.0,48.99999999999997,-0.0006828158706950001,-3.284117451831239,0.0,7.903106054547007
9.200000000000001,3639088.5212680143,-1008414.503977964,343.34456395183645,3639084.345801484,-1008414.6757574441,350.0,-2.882691583973829,0.01613762909527819,-1.3583539801771918,-1.282103981261029,-1.180102516391667,-0.15820865261601913,-0.10822100890789108,0.1161572813102497,0.0,48.999999999999325,-0.007989030250025713,0.17229781734288033,0.0,7.858680419015256
9.3,3639088.221707469,-1008414.5129491703,343.20749870938636,3639084.345801484,-1008414.6757574441,350.0,-2.995605453839502,-0.08971206213648578,-1.3706524245010123,-0.9795870927008927,-0.9365625996869904,-0.09611911555951824,-0.08322136451278271,0.08509430424664347,0.0,49.0,-4.210968786845018e-05,0.10673770790103063,0.0,7.822226506670812
9.4,3639087.9138465687,-1008414.5300666594,343.06974092905745,3639084.345801484,-1008414.6757574441,350.0,-3.078609002514007,-0.17117489084211923,-1.3775778032890953,-0.6770382931094865,-0.6925415116975959,-0.04995796145756781,-0.058242589800551206,0.05359005361123758,0.0,49.0,-0.0020869682876863867,-0.04412735717996499,0.0,7.79619537482883
9.5,3639087.6007452575,-1008414.5528886958,342.9316765273782,3639084.345801484,-1008414.6757574441,350.0,-3.1310131124613987,-0.22822036447600447,-1.3806440167925258,-0.3364467385362939,-0.45045929058328404,-0.0186833209220163,-0.03372719437577583,0.015198246244388564,0.0,49.00000000000045,-0.04633792874561217,-0.6887556731443129,0.0,7.782734250398032
9.600000000000001,3639087.286155422,-1008414.5790153707,342.79354508063085,3639084.345801484,-1008414.6757574441,350.0,-3.1458983502212656,-0.2612667489587761,-1.3813144674734985,-0.005786632452535301,-0.2079958764579577,-0.004019660536848768,-0.008727448352162728,-0.014009064444421956,0.0,48.999999999998984,0.04843505988377172,0.9184496678038496,0.0,7.783831499756876
9.700000000000001,3639086.9729383783,-1008414.6059973247,342.6554002857409,3639084.345801484,-1008414.6757574441,350.0,-3.1321704389519063,-0.26981953976759665,-1.3814479488998956,0.30690732356994843,0.03620119977788261,-0.007100918814438195,0.016116035132768512,-0.0486515809546534,0.0,48.999999999999794,-0.01562625386818577,-0.5435205821420921,0.0,7.800632006408823
9.8,3639086.66448669,-1008414.6313999756,342.51712682061725,3639084.345801484,-1008414.6757574441,350.0,-3.084516885507276,-0.2540265090031996,-1.382734651236386,0.6047076442587382,0.2502510679030161,-0.023157669365573064,0.034963432019579056,-0.07489939126570816,0.0,49.00000000000017,-0.5996086598120696,0.8394706199176669,0.0,7.834006617868763
9.9,3639086.363363799,-1008414.6533769083,342.37851887233995,3639084.345801484,-1008414.6757574441,350.0,-3.011228910100159,-0.21976932618699363,-1.3860794827730103,0.8469432737121778,0.3890446482521387,-0.045205131806896226,0.04445519908760193,-0.09831721268628554,0.0,49.00000000000006,-0.935562981878767,0.2829988890477376,0.0,7.884036603410538
10.0,3639086.071850976,-1008414.6709986662,342.2393413045802,3639084.345801484,-1008414.6757574441,350.0,-2.915128230764841,-0.17621757935277216,-1.3917756775977652,1.0621141907895897,0.4457973781790213,-0.06846788144487448,0.04655531426503044,-0.11910624053577548,0.0,48.99999999999959,-0.7391651890594368,0.2628793571087449,0.0,7.950288855259536
10.100000000000001,3639085.791970369,-1008414.6840596512,342.099363998674,3639084.345801484,-1008414.6757574441,350.0,-2.798806071942239,-0.13060985055118884,-1.3997730590619855,1.2694127426098447,0.44132388649760396,-0.09319024509355422,0.04354135718278371,-0.14096732294173273,0.0,49.00000000000006,-0.5114072259675241,-0.10720545564673054,0.0,8.031906535581985
10.200000000000001,3639085.5258458005,-1008414.6928549315,341.9583226260123,3639084.345801484,-1008414.6757574441,350.0,-2.6612456822428716,-0.08795280205325084,-1.4104137266164762,1.471594098412499,0.3966396818515852,-0.11977277394960328,0.037428011269641785,-0.16076124865389602,0.0,49.00000000000002,-0.3099388830895189,0.2067156693793959,0.0,8.127814706347799
10.3,3639085.2753970753,-1008414.6979831229,341.8159498646271,3639084.345801484,-1008414.6757574441,350.0,-2.5044872522597403,-0.05128191418087207,-1.423727613851906,1.6432476339556246,0.3295661544518352,-0.14474836884956588,0.029843555297658565,-0.17639048457006457,0.0,49.0,-0.1471110058841295,0.4164689795994746,0.0,8.236705564898594
10.4,3639085.04213746,-1008414.70018708,341.67201352458846,3639084.345801484,-1008414.6757574441,350.0,-2.332596155451748,-0.022039571162884044,-1.4393634003863893,1.7651680619561976,0.2540249457592683,-0.16381905481768033,0.022004475843648234,-0.18595388715110708,0.0,49.00000000000002,-0.025462348202711226,0.6065833335126034,0.0,8.357083183338164
10.5,3639084.826992096,-1008414.7002347724,341.5263643821069,3639084.345801484,-1008414.6757574441,350.0,-2.1514536398685022,-0.00047692502901859266,-1.456491424815442,1.8446824930249512,0.18003377063558137,-0.17698961580481853,0.014739419392601066,-0.19284031485896236,0.0,49.00000000000052,0.057402300296316405,0.26769748731872206,0.0,8.487322553642851
10.600000000000001,3639084.6306261304,-1008414.6988380541,341.3788882497522,3639084.345801484,-1008414.6757574441,350.0,-1.963659656846756,0.013967182964232296,-1.4747613235473533,1.8982878531128193,0.11407569511570433,-0.18635654467292806,0.008541972275382677,-0.19705921804828083,0.0,49.00000000000053,0.10676093338287779,0.2667524518536802,0.0,8.625846370304536
10.700000000000001,3639084.4534465233,-1008414.6966042327,341.2295119763772,3639084.345801484,-1008414.6757574441,350.0,-1.7717960692459362,0.022338213994122502,-1.4937627337500277,1.945744377317677,0.05967817623981954,-0.1953565200118499,0.0036373592635359437,-0.20269802635101278,0.0,49.00000000000025,0.12928341053716563,-0.14199051134134533,0.0,8.771173365954017
10.8,3639084.295995445,-1008414.6940139509,341.0781287136222,3639084.345801484,-1008414.6757574441,350.0,-1.5745107813832218,0.025902818212196164,-1.5138326275497231,2.0062457596904704,0.018077824841808768,-0.2076499698789478,5.2000765623520274e-05,-0.20965901329551503,0.0,49.00000000000087,0.13192545139343093,-0.13221786417703169,0.0,8.922028984050513
10.9,3639084.1589407534,-1008414.691418573,340.92459944084965,3639076.58340119,-1008412.4753047845,350.0,-1.3705469173078435,0.025953778962484245,-1.535292727725817,1.4933195516292503,0.18869072801930747,-0.13387363332120206,0.03846579615068679,-0.09685559689080045,0.0,48.99999999999953,4.199915388297569,11.976440334921683,0.0,12.02758726046786
11.0,3639084.0313560665,-1008414.6850544766,340.77053870542824,3639076.58340119,-1008412.4753047845,350.0,-1.2758468710573727,0.06364096381605752,-1.5406073542139633,0.7190669516727608,0.5021182307398664,-0.04279381756290146,0.06406060314925047,-0.050239796542436765,0.0,48.99999999999926,-1.2818988386499601,-6.61876160563509,0.0,12.06391235586295
11.100000000000001,3639083.9086827138,-1008414.672416734,340.6161535563044,3639076.58340119,-1008412.4753047845,350.0,-1.2267335269732913,0.12637742511045852,-1.5438514912383974,0.3336616306781064,0.7363742580520327,-0.03528114433122642,0.08637101079837195,-0.018046801343009643,0.0,49.0000000000002,-0.3284399349442193,-1.4422805148936555,0.0,12.10552041005409
11.200000000000001,3639083.7877712594,-1008414.6513251525,340.46138719799643,3639076.58340119,-1008412.4753047845,350.0,-1.2091145449217504,0.21091581542646443,-1.5476635830802086,0.06414586539259126,0.934597184017784,-0.04593215428498798,0.1046614281078476,0.004914471887505285,0.0,49.00000000000037,-0.4019990339645818,-0.9231721968912195,0.0,12.150026622365303
11.3,3639083.666380824,-1008414.6199954663,340.30608340578686,3639076.58340119,-1008412.4753047845,350.0,-1.2139043538947731,0.3132968619140147,-1.553037922095395,-0.13387917397215876,1.138348951567592,-0.06832421321707383,0.12819650612647843,0.022622270545310016,0.0,48.99999999999921,0.524466070915516,-0.5253474572710195,0.0,12.195913969485078
11.4,3639083.542791786,-1008414.5761369057,340.1499505632145,3639076.58340119,-1008412.4753047845,350.0,-1.2358903797161822,0.43858560573998195,-1.5613284257236233,-0.2868029987739691,1.3656227035195214,-0.1007572770613736,0.1514309429072663,0.036522485050364886,0.0,48.999999999999766,-0.030064123784294797,-0.38075841527498566,0.0,12.242143888087085
11.5,3639083.415665291,-1008414.5174947655,339.99263162546373,3639076.58340119,-1008412.4753047845,350.0,-1.2712649536495668,0.586421402617918,-1.5731893775076697,-0.4108536353947825,1.5886637359803628,-0.13917730644712023,0.17424460960264762,0.04850436959785338,0.0,48.99999999999988,-0.042077008540656144,-0.19183299575663781,0.0,12.288115984288295
11.600000000000001,3639083.2838591803,-1008414.4418629302,339.83371523676243,3639076.58340119,-1008412.4753047845,350.0,-1.3180611067951393,0.7563183529360565,-1.5891638870130476,-0.5151664095244035,1.8078195722648633,-0.18273496296599312,0.19684734298569526,0.05854830571850454,0.0,49.00000000000063,-0.021093331233367464,-0.1937948426837332,0.0,12.333565344445825
11.700000000000001,3639083.1464293567,-1008414.3470643985,339.6727415997523,3639076.58340119,-1008412.4753047845,350.0,-1.374298235554448,0.9479853170708922,-1.6097363701008685,-0.5954449651263873,1.783461685589312,-0.18306919002447763,0.16919940199901284,0.06510966436988519,0.0,49.00000000000065,-5.0250674369730035,-0.34825774692705114,0.0,12.378573780235964
11.8,3639083.0027143466,-1008414.2357633294,339.51016382725055,3639076.58340119,-1008412.4753047845,350.0,-1.4371500998204165,1.1130106900539176,-1.625777725017943,-0.6572076400216211,1.517668777136902,-0.14153214711534545,0.14180990715466962,0.0707581735260267,0.0,49.0000000000001,0.025844614233917488,-0.09128494952391406,0.0,12.423504281037374
11.9,3639082.8521403703,-1008414.1106114222,339.34635954729816,3639076.58340119,-1008412.4753047845,350.0,-1.5057397635587717,1.2515190724982714,-1.6380427995239375,-0.7020231739244052,1.2534126762765787,-0.10679251813830248,0.11471485405261192,0.07383246993469916,0.0,48.99999999999951,0.029444174228553093,-0.2574212747469047,0.0,12.468816046598313
12.0,3639082.6943848967,-1008413.9742420997,339.1816459244336,3639076.58340119,-1008412.4753047845,350.0,-1.577554734605297,1.3636932253092324,-1.6471362286456033,-0.7315432015476446,0.9922444336009129,-0.07872448873646576,0.08814955715677941,0.07638449174216363,0.0,48.99999999999989,0.05297562062251945,-0.052227460120799284,0.0,12.515099673628487
12.100000000000001,3639082.5291800564,-1008413.8292453038,339.0162671547065,3639076.58340119,-1008412.4753047845,350.0,-1.6520484038683014,1.4499679592184547,-1.6537876972712307,-0.7812589010032873,0.7364822418705943,-0.059880788675190644,0.06230736276963089,0.08368649382232753,0.0,49.00000000000054,0.07231025086839873,0.4749980272699419,0.0,12.56295460763216
12.200000000000001,3639082.355799405,-1008413.6781463363,338.85035591606845,3639076.58340119,-1008412.4753047845,350.0,-1.7338065148059552,1.5109896736833526,-1.6591123863806412,-0.8440705621306979,0.4868025965525131,-0.04937846536807733,0.03708891569877586,0.08901128113447682,0.0,48.999999999999915,0.06237473162934885,-0.19772147680145952,0.0,12.612770201161396
12.3,3639082.173713153,-1008413.5234134885,338.68398957703397,3639076.58340119,-1008412.4753047845,350.0,-1.8208625162944405,1.547328478528957,-1.663663390344846,-0.9130951121447524,0.24272854185913761,-0.046489285329535335,0.012456346126122123,0.09767609326621482,0.0,49.0000000000003,0.058587749820130125,0.33400248195887167,0.0,12.664999470709096
12.4,3639081.9820705997,-1008413.3674599503,338.5171485526893,3639076.58340119,-1008412.4753047845,350.0,-1.9164255372349048,1.55953538205518,-1.6684102434465482,-0.9965760025479504,0.004472261935484667,-0.05160045760697862,-0.011543573858615222,0.10607544006204797,0.0,48.99999999999998,0.06326495879163874,-0.02654653359048514,0.0,12.719962641243088
12.5,3639081.780052828,-1008413.2126376572,338.3497502045027,3639076.58340119,-1008412.4753047845,350.0,-2.02017771680403,1.548222930916054,-1.6739834818662416,-1.090652980117314,-0.22891438667650288,-0.06440711555829104,-0.03518116120259756,0.11705204440353847,0.0,49.00000000000008,0.03623326407550089,0.2577257545657352,0.0,12.777995473061452
12.600000000000001,3639081.566597215,-1008413.0612624068,338.18162103784687,3639076.58340119,-1008412.4753047845,350.0,-2.134556133258369,1.5137525047198788,-1.6812916665582065,-1.2160149493560422,-0.4583993099151451,-0.08749124919141416,-0.05841018311278377,0.13206174055541733,0.0,48.999999999999716,0.040856543379612746,0.40330918103883406,0.0,12.83937966763095
12.700000000000001,3639081.340259144,-1008412.9156080999,338.0124728646764,3639076.58340119,-1008412.4753047845,350.0,-2.2633807066752394,1.456543068933025,-1.6914817317045243,-1.3776115382576393,-0.6886329608576132,-0.12291562645138043,-0.08225308044002153,0.15076992863531563,0.0,48.9999999999998,-0.06138754170515438,0.36984919280194445,0.0,12.904354746514288
12.8,3639081.0992513,-1008412.7780055086,337.84188538549154,3639076.58340119,-1008412.4753047845,350.0,-2.410078440909896,1.3760259125483567,-1.7058747918484825,-1.5494058759413463,-0.9197988569245164,-0.1681366453646227,-0.10575068389221232,0.16824171779419125,0.0,49.00000000000012,0.03452938750469585,-0.12363989210226613,0.0,12.973213978182084
12.9,3639080.841925112,-1008412.6507471788,337.6693744794138,3639076.58340119,-1008412.4753047845,350.0,-2.5732618818635076,1.2725832975481224,-1.7251090607774489,-1.464395652757645,-1.1405907300758598,-0.17944257901516458,-0.1275656272238847,0.13382579237297254,0.0,49.000000000000135,0.16826601205184144,-5.188771458009434,0.0,13.046460506837244
13.0,3639080.5716293547,-1008412.5359564022,337.4951981486487,3639076.58340119,-1008412.4753047845,350.0,-2.702957571461424,1.1479077665331856,-1.7417633076515155,-1.1300144909975458,-1.356434156940912,-0.1624050047021406,-0.1501671138500561,0.09955557429980529,0.0,48.999999999997634,-0.07865432944990307,0.014570734805146188,0.0,13.125536631060237
13.100000000000001,3639080.291702877,-1008412.4358267556,337.3194391424769,3639076.58340119,-1008412.4753047845,350.0,-2.7992647800630173,1.001296466159938,-1.7575900617178772,-0.8074612951976761,-1.5868989110113612,-0.16512028153364433,-0.17514767266479989,0.06760027384231837,0.0,48.999999999999325,-0.23790721885723712,0.23149176156803447,0.0,13.211725230853075
13.200000000000001,3639080.005257894,-1008412.3527739572,337.14196040608107,3639076.58340119,-1008412.4753047845,350.0,-2.864449830500961,0.8305279843309121,-1.7747873639582448,-0.5050633272140459,-1.8278926737261982,-0.1871183496300901,-0.20011880712169267,0.03731190992259283,0.0,49.00000000000036,0.0009424357851018369,0.1666936537761371,0.0,13.306137655349062
13.3,3639079.715230149,-1008412.289202164,336.9624590329167,3639076.58340119,-1008412.4753047845,350.0,-2.900277445505826,0.6357179314146997,-1.7950137316438952,-0.2103256781081253,-2.0167364023088226,-0.21345672919153458,-0.21443263249478642,0.006514051443448916,0.0,49.00000000000088,1.0657309083799018,-0.050949455941837765,0.0,13.409715182760907
13.4,3639079.4245786527,-1008412.2464840936,336.780711161937,3639076.58340119,-1008412.4753047845,350.0,-2.906514966122586,0.4271807038691491,-1.8174787097965517,0.08374327846674845,-1.9647795174211713,-0.20124032576218553,-0.18931107443180184,-0.023884225027023448,0.0,49.000000000000554,3.943538343607831,0.03995820086715491,0.0,13.523100445781699
13.5,3639079.136225774,-1008412.2222078908,336.5971849822574,3639076.58340119,-1008412.4753047845,350.0,-2.8835287898124764,0.24276202793046678,-1.8352617967963323,0.364095417340792,-1.7220126067906758,-0.16107468946631442,-0.1639827598815321,-0.051564183272972304,0.0,49.000000000000206,0.020675648728518223,0.27183182245235105,0.0,13.646113798193456
13.600000000000001,3639078.8528561858,-1008412.2139300726,336.4122156174884,3639076.58340119,-1008412.4753047845,350.0,-2.833695882654427,0.08277818251101257,-1.8496936476898147,0.6255921812967884,-1.4771802608970082,-0.1338103914982529,-0.1386604414222793,-0.0776444404125266,0.0,49.00000000000012,-0.0005996091016930785,0.1599701106394555,0.0,13.778484210639778
13.700000000000001,3639078.5770151503,-1008412.219197475,336.22601322997883,3639076.58340119,-1008412.4753047845,350.0,-2.7584103535531184,-0.05267402424893691,-1.8620238750959832,0.8686868382826454,-1.2322516692881664,-0.11813317157973557,-0.11350697217487181,-0.10128479867268385,0.0,49.00000000000005,-0.0168849211845333,0.24398988793970555,0.0,13.919870657340137
13.8,3639078.3110192986,-1008412.2355646901,336.0386812017783,3639076.58340119,-1008412.4753047845,350.0,-2.6599585149978986,-0.16367215134661983,-1.873320282005762,1.088346967555612,-0.9886216507385182,-0.11224385838829853,-0.0886120450670797,-0.12243540374042743,0.0,49.000000000000036,-0.025854213961537184,0.24897531924136676,0.0,14.069845849449555
13.9,3639078.0569452024,-1008412.2606045256,335.85023393710094,3639076.58340119,-1008412.4753047845,350.0,-2.5407409600419966,-0.2503983543966398,-1.8844726467736428,1.2856245104061266,-0.7476497213471368,-0.11469465404692336,-0.06412939739478933,-0.1414831951969409,0.0,49.00000000000017,-0.04122794355017308,0.21028136112301218,0.0,14.227905952462018
14.0,3639077.8166618412,-1008412.2919247352,335.66060801581943,3639076.58340119,-1008412.4753047845,350.0,-2.402833612916674,-0.31320209561604667,-1.8962592128151465,1.4635559877300537,-0.5106807260142701,-0.1244506193295738,-0.040145889040671984,-0.1587565258856899,0.0,49.00000000000005,-0.049913931817302575,0.17744607677644353,0.0,14.393495841944139
14.100000000000001,3639077.5918588648,-1008412.3271781851,335.4696717387555,3639076.58340119,-1008412.4753047845,350.0,-2.248029762495984,-0.35253449959949396,-1.9093627706395577,1.6143708749333179,-0.27675409425650677,-0.13878033928753553,-0.016346049209877183,-0.1723756212789854,0.0,49.000000000000014,-0.018366852332255067,0.36542352954535096,0.0,14.566034729826594
14.200000000000001,3639077.383862921,-1008412.3640334766,335.27727021068824,3639076.58340119,-1008412.4753047845,350.0,-2.079959437930009,-0.3685529144673487,-1.9240152806726538,1.7272625998421987,-0.04235241204814311,-0.1543451783126102,0.007702048045487079,-0.18201088739548774,0.0,48.99999999999982,0.02482574245694619,0.39838292767931555,0.0,14.744893785162413
14.3,3639077.1936051967,-1008412.4001339747,335.08324703005803,3639076.58340119,-1008412.4753047845,350.0,-1.9025772425275456,-0.3610049820091225,-1.9402318063020796,1.8112505562645218,0.19791435880769992,-0.1717229609124029,0.032694537974249246,-0.1898805543725993,0.0,49.00000000000017,0.09443926733979002,0.17655991393908044,0.0,14.929417897108888
14.4,3639077.021834264,-1008412.433030979,334.8874110427725,3639076.58340119,-1008412.4753047845,350.0,-1.717709326677106,-0.3289700427058089,-1.9583598728551344,1.870567907795568,0.4336559983879449,-0.1906549236427768,0.05584152761261463,-0.19463587241089308,0.0,49.00000000000043,-0.18455002903967826,0.311434893881775,0.0,15.119006436438108
14.5,3639076.868987898,-1008412.4604583572,334.68957476366944,3639076.58340119,-1008412.4753047845,350.0,-1.5284636609684332,-0.2742737823315339,-1.9783627910306347,1.9028500073396515,0.5969098980762195,-0.20519771149472987,0.0660538588829044,-0.19692591873723433,0.0,49.000000000000114,-1.2934658368075609,0.24652717119525333,0.0,15.313095738658422
14.600000000000001,3639076.735273965,-1008412.4814171635,334.489634822154,3639076.58340119,-1008412.4753047845,350.0,-1.3371393252091734,-0.2095880630905642,-1.9993994151540804,1.9241117865359287,0.6470245004902233,-0.21255872659721575,0.06608807805168553,-0.19919359417938953,0.0,49.00000000000003,-1.0178112101508634,0.0022370884186054298,0.0,15.51110991035511
14.700000000000001,3639076.6209098347,-1008412.4959040517,334.28754736851903,3639076.58340119,-1008412.4753047845,350.0,-1.1436413036612454,-0.14486888223348854,-2.020874536350078,1.9263294055019937,0.6147049452246689,-0.2109308051559431,0.059445012403848405,-0.19730541485569958,0.0,49.00000000000001,-0.6677284816618252,0.4155854765845153,0.0,15.712510904523342
14.8,3639076.52572249,-1008412.5045687591,334.0833888109005,3639068.86424392,-1008410.1122335568,350.0,-0.951873444108776,-0.08664707404563082,-2.041585576185269,1.3376620740066771,0.7521969257663997,-0.1400285706207569,0.09423899564131669,-0.07773360437629817,0.0,49.000000000002046,4.14370488853054,11.768363115571145,0.0,17.82582489947587
14.9,3639076.4381116014,-1008412.5040117088,333.8785007858531,3639068.86424392,-1008410.1122335568,350.0,-0.8761088888599109,0.005570502919790873,-2.0488802504742294,0.5156614061703788,1.0443750997378551,-0.07323872624403549,0.11932114547818189,-0.028129947413486928,0.0,49.00000000000132,-0.9711833400603089,-6.9968153516590155,0.0,17.971833832302337
15.0,3639076.353237485,-1008412.4917889142,333.67287745370965,3639068.86424392,-1008410.1122335568,350.0,-0.8487411628747007,0.12222794590193946,-2.056233321434076,0.11877947103183661,1.2858753278790291,-0.08743098704363561,0.14388124938506094,0.0037240318032637776,0.0,48.99999999999938,-0.05220459299861499,-1.7749677746060533,0.0,18.119664427310926
15.100000000000001,3639076.2680021855,-1008412.4655143573,333.4662408089213,3639068.86424392,-1008410.1122335568,350.0,-0.852352994653544,0.2627455684955985,-2.0663664478829564,-0.1453455445564904,1.495071454631619,-0.11685054173759646,0.16244479277556187,0.026326405827787627,0.0,48.9999999999999,-0.5996560516378125,-0.9251605192226858,0.0,18.267970877172974
15.200000000000001,3639076.1802211585,-1008412.4233901337,333.2582804659432,3639068.86424392,-1008410.1122335568,350.0,-0.8778102717859985,0.4212422368282645,-2.0796034297815953,-0.33436274072997385,1.6780591068309185,-0.1513251039205965,0.18172836684301735,0.042981276875424065,0.0,49.00000000000016,0.07200306769545693,-0.5947502976887412,0.0,18.416029448152326
15.3,3639076.0882986044,-1008412.3635543947,333.04861731907647,3639068.86424392,-1008410.1122335568,350.0,-0.9192255427995385,0.598357389861781,-2.0966314686670757,-0.4756020741387781,1.885711663187227,-0.19581642966794455,0.20555383504675218,0.05600892425516939,0.0,48.99999999999884,0.45418941362793225,-0.3627223667891116,0.0,18.5635337797884
15.4,3639075.9910055357,-1008412.2837159378,332.83674064750494,3639068.86424392,-1008410.1122335568,350.0,-0.9729306866137537,0.7983845694657086,-2.1187667157151844,-0.5978099654673423,1.973745563261598,-0.21967883336037097,0.20002705869953166,0.06862187435969183,0.0,48.99999999999988,-2.9352244550955326,-0.041469727522286975,0.0,18.710519459902184
15.5,3639075.887126782,-1008412.1844052875,332.622683923971,3639068.86424392,-1008410.1122335568,350.0,-1.0387875358930065,0.9931065025140992,-2.14056723533915,-0.713157685169433,1.822242867961143,-0.19834122256584052,0.17406815490037386,0.07962767293615161,0.0,48.99999999999988,-2.0432127451937285,-0.16071515280626758,0.0,18.856985267568177
15.600000000000001,3639075.77557056,-1008412.0681219732,332.40684042794817,3639068.86424392,-1008410.1122335568,350.0,-1.1155622236476412,1.1628331430579386,-2.1584349602283526,-0.8311314166113029,1.5708122836204206,-0.1635311607806358,0.1479223446527466,0.09241643854090856,0.0,48.99999999999997,-0.018690644846946533,0.1782967028297172,0.0,19.00292606803787
15.700000000000001,3639075.655069178,-1008411.9373950773,332.18951308119864,3639068.86424392,-1008410.1122335568,350.0,-1.2050138192152677,1.3072689592381854,-2.173273467495277,-0.971869634562939,1.3186226094297062,-0.13900508113655086,0.1220257769092701,0.10807595551175811,0.0,48.99999999999965,0.024924250415077693,0.2870751366092601,0.0,19.14836720312081
15.8,3639075.524075563,-1008411.7947393109,331.9708894835531,3639068.86424392,-1008410.1122335568,350.0,-1.3099361505602283,1.426557664943879,-2.1862359764556625,-1.1195766380154621,1.0671632472992751,-0.12389944731727986,0.09621362260181657,0.12229018159815333,0.0,48.99999999999985,0.008441343602294678,-0.1445290884454331,0.0,19.29334105698603
15.9,3639075.3811826482,-1008411.64266915,331.7510841478572,3639068.86424392,-1008410.1122335568,350.0,-1.4289291468183594,1.5207016086980396,-2.198053356958733,-1.2410748847026376,0.8168847782128212,-0.11422243131142551,0.07070482671262085,0.13257748516521234,0.0,49.00000000000027,0.030335841825782934,-0.3926922519336219,0.0,19.437995093932212
16.0,3639075.2253675354,-1008411.4836756879,331.5301761015854,3639068.86424392,-1008410.1122335568,350.0,-1.558151127500755,1.5899346205864426,-2.2090804627179477,-1.323196411662324,0.5697081594747564,-0.10729246793147418,0.045636880684545765,0.138769896739237,0.0,48.99999999999962,0.04408498611206287,-0.40948919930343286,0.0,19.582623471025922
16.1,3639075.0560106924,-1008411.3202113638,331.30822491653095,3639068.86424392,-1008410.1122335568,350.0,-1.6935684291508257,1.6346432405929912,-2.219511850545028,-1.3504494126162463,0.3262167334000132,-0.0997306878633939,0.020955336366942006,0.1378877074151978,0.0,48.99999999999994,0.03864017104713256,-0.7074600898063887,0.0,19.727636501043737
16.2,3639074.8731865915,-1008411.1546935671,331.0853222565019,3639068.86424392,-1008410.1122335568,350.0,-1.8282410100240032,1.6551779672664457,-2.2290266002906263,-1.3883274238948378,0.08746268458409645,-0.10003887388162269,-0.003104280247632943,0.14643460381053436,0.0,48.999999999998586,0.06219277030288112,0.9429085719375802,0.0,19.87357917044135
16.3,3639074.6760632,-1008410.9894799893,330.8613702939698,3639068.86424392,-1008410.1122335568,350.0,-1.9712339139297927,1.6521357775098096,-2.2395196253213525,-1.4918190174418076,-0.14781172661733954,-0.11625647345234569,-0.027064687245486142,0.15927235924062072,0.0,48.99999999999995,0.009920961672174936,0.42908590347497744,0.0,20.020837936299746
16.400000000000002,3639074.463402719,-1008410.8269184271,330.6361425044717,3639068.86424392,-1008410.1122335568,350.0,-2.126604813512369,1.6256156219429772,-2.2522778949810958,-1.616507309405618,-0.3800002873169852,-0.14261134348039306,-0.050511171925872844,0.1724297262042576,0.0,49.000000000000064,0.05139223174664936,0.03196115335505074,0.0,20.169787575115755
16.5,3639074.233949181,-1008410.6693048552,330.40933831507,3639068.86424392,-1008410.1122335568,350.0,-2.2945353758109146,1.5761357200464134,-2.268041894017431,-1.7467382909964986,-0.6070697513542376,-0.1769627242930465,-0.07346816395001667,0.1867030031101952,0.0,49.0,0.048949265624288196,0.1115909942300732,0.0,20.320878137446922
16.6,3639073.986353934,-1008410.518884688,330.180571271086,3639068.86424392,-1008410.1122335568,350.0,-2.475952471711668,1.5042016716721291,-2.287670439839705,-1.8849912043276795,-0.8316519153891546,-0.21997009794576883,-0.09647236427561592,0.20187327441873526,0.0,49.00000000000044,-0.004720830145543208,0.08969944026024568,0.0,20.474646059871496
16.7,3639073.719200572,-1008410.3779041544,329.94936767972536,3639068.86424392,-1008410.1122335568,350.0,-2.6715336166764483,1.409805336968584,-2.3120359136065844,-1.784587376800701,-1.059707594182231,-0.22455283483667543,-0.12023354089719156,0.1665956146281871,0.0,48.99999999999998,-0.07569762959763837,-5.044793109908823,0.0,20.631748384526517
16.8,3639073.435913577,-1008410.2486781391,329.71610957904466,3639068.86424392,-1008410.1122335568,350.0,-2.8328699470718055,1.2922601528356827,-2.33258100680704,-1.4457364224117377,-1.2961561047327503,-0.19650702790717212,-0.14508606255864037,0.1321887843657915,0.0,49.00000000000001,-0.10913450398731725,0.08708295281526061,0.0,20.793147697940345
